$GPGGA,144324.00,5524.63267,N,01023.66212,E,1,08,2.06,23.1,M,43.1,M,,*63
$GPGGA,144329.00,5524.63249,N,01023.66045,E,1,07,1.47,23.7,M,43.1,M,,*6D
$GPGGA,144334.00,5524.63219,N,01023.66080,E,1,08,1.47,23.8,M,43.1,M,,*6D
$GPGGA,144339.00,5524.63207,N,01023.66084,E,1,08,1.47,24.4,M,43.1,M,,*60
$GPGGA,144344.00,5524.63213,N,01023.66154,E,1,09,1.09,24.2,M,43.1,M,,*6E
$GPGGA,144349.00,5524.63200,N,01023.66235,E,1,08,1.09,24.0,M,43.1,M,,*66
$GPGGA,144354.00,5524.63184,N,01023.66286,E,1,09,1.47,24.2,M,43.1,M,,*64
$GPGGA,144359.00,5524.63162,N,01023.66346,E,1,09,1.06,24.3,M,43.1,M,,*68
$GPGGA,144404.00,5524.63151,N,01023.66420,E,1,10,0.96,24.0,M,43.1,M,,*63
$GPGGA,144409.00,5524.63145,N,01023.66505,E,1,08,0.95,23.4,M,43.1,M,,*64
$GPGGA,144414.00,5524.63153,N,01023.66562,E,1,09,1.06,23.0,M,43.1,M,,*60
$GPGGA,144419.00,5524.63149,N,01023.66591,E,1,09,2.06,22.5,M,43.1,M,,*6D
$GPGGA,144424.00,5524.63152,N,01023.66651,E,1,07,2.06,21.6,M,43.1,M,,*68
$GPGGA,144429.00,5524.63144,N,01023.66649,E,1,07,1.12,21.4,M,43.1,M,,*6F
$GPGGA,144434.00,5524.63130,N,01023.66638,E,1,07,1.12,21.4,M,43.1,M,,*66
$GPGGA,144439.00,5524.63117,N,01023.66642,E,1,07,1.12,21.4,M,43.1,M,,*63
$GPGGA,144444.00,5524.63107,N,01023.66652,E,1,07,1.12,21.5,M,43.1,M,,*68
$GPGGA,144449.00,5524.63099,N,01023.66668,E,1,07,1.12,21.6,M,43.1,M,,*69
$GPGGA,144454.00,5524.63093,N,01023.66700,E,1,09,2.02,21.5,M,43.1,M,,*6F
$GPGGA,144459.00,5524.63086,N,01023.66728,E,1,08,2.02,21.4,M,43.1,M,,*6C
$GPGGA,144504.00,5524.63080,N,01023.66746,E,1,08,2.02,21.4,M,43.1,M,,*6B
$GPGGA,144509.00,5524.63079,N,01023.66754,E,1,08,2.02,21.3,M,43.1,M,,*64
$GPGGA,144514.00,5524.63081,N,01023.66750,E,1,07,2.02,21.3,M,43.1,M,,*64
$GPGGA,144519.00,5524.63082,N,01023.66750,E,1,07,2.02,21.2,M,43.1,M,,*6B
$GPGGA,144524.00,5524.63084,N,01023.66745,E,1,09,2.02,21.2,M,43.1,M,,*69
$GPGGA,144529.00,5524.63085,N,01023.66737,E,1,08,2.01,21.3,M,43.1,M,,*63
$GPGGA,144534.00,5524.63088,N,01023.66729,E,1,09,2.01,21.3,M,43.1,M,,*6C
$GPGGA,144539.00,5524.63092,N,01023.66722,E,1,08,2.01,21.4,M,43.1,M,,*67
$GPGGA,144544.00,5524.63095,N,01023.66732,E,1,08,2.01,21.4,M,43.1,M,,*6B
$GPGGA,144549.00,5524.63096,N,01023.66752,E,1,09,1.42,21.4,M,43.1,M,,*66
$GPGGA,144554.00,5524.63100,N,01023.66754,E,1,09,1.42,21.5,M,43.1,M,,*63
$GPGGA,144559.00,5524.63102,N,01023.66761,E,1,08,1.42,21.4,M,43.1,M,,*6A
$GPGGA,144604.00,5524.63106,N,01023.66773,E,1,09,1.42,21.4,M,43.1,M,,*67
$GPGGA,144609.00,5524.63111,N,01023.66783,E,1,09,1.42,21.5,M,43.1,M,,*62
$GPGGA,144614.00,5524.63113,N,01023.66794,E,1,09,1.42,21.5,M,43.1,M,,*6A
$GPGGA,144619.00,5524.63116,N,01023.66795,E,1,09,1.42,21.5,M,43.1,M,,*63
$GPGGA,144624.00,5524.63121,N,01023.66789,E,1,09,1.42,21.5,M,43.1,M,,*64
$GPGGA,144629.00,5524.63123,N,01023.66781,E,1,09,1.42,21.6,M,43.1,M,,*60
$GPGGA,144634.00,5524.63125,N,01023.66776,E,1,09,1.42,21.6,M,43.1,M,,*62
$GPGGA,144639.00,5524.63125,N,01023.66776,E,1,09,1.42,21.6,M,43.1,M,,*6F
$GPGGA,144644.00,5524.63122,N,01023.66788,E,1,09,1.42,21.5,M,43.1,M,,*60
$GPGGA,144649.00,5524.63119,N,01023.66801,E,1,09,1.42,21.4,M,43.1,M,,*6A
$GPGGA,144654.00,5524.63119,N,01023.66798,E,1,08,1.41,21.5,M,43.1,M,,*6A
$GPGGA,144659.00,5524.63116,N,01023.66818,E,1,08,1.41,21.5,M,43.1,M,,*6F
$GPGGA,144704.00,5524.63117,N,01023.66809,E,1,08,1.41,21.5,M,43.1,M,,*67
$GPGGA,144709.00,5524.63116,N,01023.66811,E,1,09,1.41,21.5,M,43.1,M,,*63
$GPGGA,144714.00,5524.63113,N,01023.66822,E,1,09,1.41,21.4,M,43.1,M,,*6B
$GPGGA,144719.00,5524.63110,N,01023.66830,E,1,09,1.41,21.3,M,43.1,M,,*61
$GPGGA,144724.00,5524.63109,N,01023.66828,E,1,09,1.41,21.3,M,43.1,M,,*6E
$GPGGA,144729.00,5524.63108,N,01023.66817,E,1,09,1.41,21.3,M,43.1,M,,*6E
$GPGGA,144734.00,5524.63107,N,01023.66805,E,1,09,1.41,21.3,M,43.1,M,,*6E
$GPGGA,144739.00,5524.63107,N,01023.66787,E,1,09,1.41,21.3,M,43.1,M,,*66
$GPGGA,144744.00,5524.63108,N,01023.66763,E,1,09,1.41,21.4,M,43.1,M,,*6E
$GPGGA,144749.00,5524.63107,N,01023.66749,E,1,09,1.04,21.5,M,43.1,M,,*64
$GPGGA,144754.00,5524.63103,N,01023.66758,E,1,09,1.41,21.4,M,43.1,M,,*6C
$GPGGA,144759.00,5524.63095,N,01023.66796,E,1,09,1.81,21.4,M,43.1,M,,*61
$GPGGA,144804.00,5524.63092,N,01023.66808,E,1,08,1.81,21.4,M,43.1,M,,*68
$GPGGA,144809.00,5524.63093,N,01023.66791,E,1,07,1.81,21.5,M,43.1,M,,*65
$GPGGA,144814.00,5524.63090,N,01023.66805,E,1,07,1.81,21.4,M,43.1,M,,*69
$GPGGA,144819.00,5524.63087,N,01023.66821,E,1,08,1.81,21.3,M,43.1,M,,*6C
$GPGGA,144824.00,5524.63086,N,01023.66833,E,1,08,1.82,21.3,M,43.1,M,,*63
$GPGGA,144829.00,5524.63086,N,01023.66829,E,1,09,1.36,21.3,M,43.1,M,,*6B
$GPGGA,144834.00,5524.63087,N,01023.66828,E,1,08,1.82,21.3,M,43.1,M,,*69
$GPGGA,144839.00,5524.63088,N,01023.66818,E,1,07,1.82,21.4,M,43.1,M,,*60
$GPGGA,144844.00,5524.63089,N,01023.66805,E,1,08,1.82,21.4,M,43.1,M,,*68
$GPGGA,144849.00,5524.63091,N,01023.66799,E,1,08,1.82,21.4,M,43.1,M,,*66
$GPGGA,144854.00,5524.63093,N,01023.66797,E,1,08,1.82,21.4,M,43.1,M,,*66
$GPGGA,144859.00,5524.63094,N,01023.66794,E,1,09,1.41,21.4,M,43.1,M,,*61
$GPGGA,144904.00,5524.63095,N,01023.66802,E,1,08,1.47,21.3,M,43.1,M,,*69
$GPGGA,144909.00,5524.63095,N,01023.66811,E,1,08,1.47,21.3,M,43.1,M,,*66
$GPGGA,144914.00,5524.63084,N,01023.66897,E,1,08,1.47,21.0,M,43.1,M,,*67
$GPGGA,144919.00,5524.63076,N,01023.66959,E,1,08,1.47,20.8,M,43.1,M,,*6D
$GPGGA,144924.00,5524.63071,N,01023.67002,E,1,08,1.47,20.6,M,43.1,M,,*6C
$GPGGA,144929.00,5524.63082,N,01023.66946,E,1,09,1.47,20.8,M,43.1,M,,*6A
$GPGGA,144934.00,5524.63110,N,01023.66769,E,1,07,1.51,21.3,M,43.1,M,,*6C
$GPGGA,144939.00,5524.63141,N,01023.66555,E,1,08,1.51,22.0,M,43.1,M,,*67
$GPGGA,144944.00,5524.63171,N,01023.66346,E,1,07,1.51,22.6,M,43.1,M,,*63
$GPGGA,144949.00,5524.63207,N,01023.66092,E,1,08,1.54,23.4,M,43.1,M,,*6F
$GPGGA,144954.00,5524.63227,N,01023.65935,E,1,09,1.49,23.9,M,43.1,M,,*66
$GPGGA,144959.00,5524.63239,N,01023.65846,E,1,08,2.02,24.2,M,43.1,M,,*60
$GPGGA,145004.00,5524.63244,N,01023.65809,E,1,10,0.97,24.4,M,43.1,M,,*60
$GPGGA,145009.00,5524.63243,N,01023.65803,E,1,09,1.08,24.6,M,43.1,M,,*6D
$GPGGA,145014.00,5524.63241,N,01023.65793,E,1,09,1.08,24.7,M,43.1,M,,*64
$GPGGA,145019.00,5524.63224,N,01023.65895,E,1,09,1.08,24.4,M,43.1,M,,*60
$GPGGA,145024.00,5524.63221,N,01023.65911,E,1,10,1.36,24.4,M,43.1,M,,*63
$GPGGA,145029.00,5524.63205,N,01023.66009,E,1,08,1.49,24.2,M,43.1,M,,*6C
$GPGGA,145034.00,5524.63187,N,01023.66150,E,1,07,1.54,23.8,M,43.1,M,,*6A
$GPGGA,145039.00,5524.63196,N,01023.66080,E,1,08,1.54,24.1,M,43.1,M,,*6A
$GPGGA,145044.00,5524.63217,N,01023.65924,E,1,09,1.49,24.6,M,43.1,M,,*64
$GPGGA,145049.00,5524.63235,N,01023.65783,E,1,08,1.10,25.0,M,43.1,M,,*60
$GPGGA,145054.00,5524.63248,N,01023.65673,E,1,09,1.07,25.3,M,43.1,M,,*6C
$GPGGA,145059.00,5524.63259,N,01023.65589,E,1,08,1.49,25.5,M,43.1,M,,*6A
$GPGGA,145104.00,5524.63267,N,01023.65532,E,1,10,1.49,25.7,M,43.1,M,,*65
$GPGGA,145109.00,5524.63275,N,01023.65478,E,1,07,1.88,26.0,M,43.1,M,,*6B
$GPGGA,145114.00,5524.63277,N,01023.65450,E,1,08,1.47,26.0,M,43.1,M,,*63
$GPGGA,145119.00,5524.63277,N,01023.65437,E,1,08,1.47,26.0,M,43.1,M,,*6F
$GPGGA,145124.00,5524.63278,N,01023.65419,E,1,08,1.10,26.1,M,43.1,M,,*61
$GPGGA,145129.00,5524.63275,N,01023.65426,E,1,08,2.02,26.1,M,43.1,M,,*6D
$GPGGA,145134.00,5524.63267,N,01023.65461,E,1,09,1.07,25.9,M,43.1,M,,*6D
$GPGGA,145139.00,5524.63255,N,01023.65525,E,1,09,1.07,25.7,M,43.1,M,,*6E
$GPGGA,145144.00,5524.63235,N,01023.65670,E,1,08,1.47,25.1,M,43.1,M,,*62
$GPGGA,145149.00,5524.63225,N,01023.65724,E,1,08,1.47,24.8,M,43.1,M,,*66
$GPGGA,145154.00,5524.63232,N,01023.65654,E,1,08,1.47,24.8,M,43.1,M,,*6A
$GPGGA,145159.00,5524.63243,N,01023.65551,E,1,08,1.47,24.9,M,43.1,M,,*66
$GPGGA,145204.00,5524.63256,N,01023.65439,E,1,08,1.47,24.9,M,43.1,M,,*66
$GPGGA,145210.00,5524.63263,N,01023.65366,E,1,08,1.47,24.8,M,43.1,M,,*69
$GPGGA,145220.00,5524.63305,N,01023.65055,E,1,08,1.47,25.4,M,43.1,M,,*65
$GPGGA,145230.00,5524.63326,N,01023.64903,E,1,10,0.93,25.8,M,43.1,M,,*63
$GPGGA,145240.00,5524.63327,N,01023.64854,E,1,08,1.47,25.8,M,43.1,M,,*67
$GPGGA,145250.00,5524.63311,N,01023.64931,E,1,09,1.05,25.4,M,43.1,M,,*6A
$GPGGA,145300.00,5524.63270,N,01023.65167,E,1,09,1.05,24.1,M,43.1,M,,*66
$GPGGA,145310.00,5524.63256,N,01023.65220,E,1,07,1.46,23.4,M,43.1,M,,*68
$GPGGA,145320.00,5524.63302,N,01023.64795,E,1,07,1.46,23.7,M,43.1,M,,*62
$GPGGA,145330.00,5524.63322,N,01023.64651,E,1,07,1.46,24.1,M,43.1,M,,*69
$GPGGA,145340.00,5524.63328,N,01023.64637,E,1,08,1.46,24.5,M,43.1,M,,*6F
$GPGGA,145350.00,5524.63329,N,01023.64633,E,1,08,1.05,24.7,M,43.1,M,,*6E
$GPGGA,145400.00,5524.63329,N,01023.64634,E,1,07,1.46,24.9,M,43.1,M,,*6D
$GPGGA,145410.00,5524.63300,N,01023.64811,E,1,08,1.46,24.1,M,43.1,M,,*69
$GPGGA,145420.00,5524.63277,N,01023.64904,E,1,08,1.46,23.3,M,43.1,M,,*6B
$GPGGA,145430.00,5524.63302,N,01023.64615,E,1,08,1.07,23.8,M,43.1,M,,*68
$GPGGA,145440.00,5524.63318,N,01023.64511,E,1,09,1.09,24.1,M,43.1,M,,*62
$GPGGA,145450.00,5524.63333,N,01023.64427,E,1,09,0.93,24.6,M,43.1,M,,*6B
$GPGGA,145500.00,5524.63342,N,01023.64417,E,1,09,1.07,25.0,M,43.1,M,,*61
$GPGGA,145510.00,5524.63341,N,01023.64451,E,1,10,1.07,25.0,M,43.1,M,,*69
$GPGGA,145520.00,5524.63326,N,01023.64556,E,1,08,1.46,24.5,M,43.1,M,,*65
$GPGGA,145530.00,5524.63285,N,01023.64801,E,1,09,1.06,23.4,M,43.1,M,,*60
$GPGGA,145540.00,5524.63261,N,01023.64923,E,1,08,1.06,22.8,M,43.1,M,,*60
$GPGGA,145550.00,5524.63254,N,01023.64943,E,1,09,0.92,22.7,M,43.1,M,,*63
$GPGGA,145600.00,5524.63247,N,01023.65002,E,1,08,1.04,22.4,M,43.1,M,,*66
$GPGGA,145610.00,5524.63238,N,01023.65102,E,1,08,1.04,21.9,M,43.1,M,,*60
$GPGGA,145620.00,5524.63228,N,01023.65200,E,1,09,1.04,21.4,M,43.1,M,,*6F
$GPGGA,145630.00,5524.63210,N,01023.65361,E,1,08,1.04,20.9,M,43.1,M,,*6E
$GPGGA,145640.00,5524.63179,N,01023.65652,E,1,08,1.04,20.3,M,43.1,M,,*6A
$GPGGA,145650.00,5524.63145,N,01023.66017,E,1,08,1.04,19.6,M,43.1,M,,*6F
$GPGGA,145700.00,5524.63154,N,01023.65981,E,1,08,1.04,19.9,M,43.1,M,,*61
$GPGGA,145710.00,5524.63168,N,01023.65908,E,1,08,1.04,20.0,M,43.1,M,,*6D
$GPGGA,145720.00,5524.63184,N,01023.65799,E,1,08,1.46,20.3,M,43.1,M,,*6F
$GPGGA,145730.00,5524.63194,N,01023.65739,E,1,07,1.46,20.7,M,43.1,M,,*6E
$GPGGA,145740.00,5524.63198,N,01023.65744,E,1,07,1.46,21.0,M,43.1,M,,*69
$GPGGA,145750.00,5524.63193,N,01023.65804,E,1,08,1.46,21.4,M,43.1,M,,*63
$GPGGA,145800.00,5524.63176,N,01023.65963,E,1,07,1.46,21.3,M,43.1,M,,*6A
$GPGGA,145810.00,5524.63156,N,01023.66175,E,1,07,1.46,20.9,M,43.1,M,,*6E
$GPGGA,145820.00,5524.63177,N,01023.66053,E,1,07,1.46,21.4,M,43.1,M,,*67
$GPGGA,145830.00,5524.63211,N,01023.65811,E,1,07,1.46,22.3,M,43.1,M,,*6C
$GPGGA,145840.00,5524.63238,N,01023.65621,E,1,08,1.04,23.2,M,43.1,M,,*64
$GPGGA,145850.00,5524.63254,N,01023.65513,E,1,08,1.04,23.7,M,43.1,M,,*68
$GPGGA,145900.00,5524.63265,N,01023.65465,E,1,07,1.46,24.1,M,43.1,M,,*66
$GPGGA,145910.00,5524.63270,N,01023.65449,E,1,07,1.46,24.6,M,43.1,M,,*6A
$GPGGA,145920.00,5524.63257,N,01023.65563,E,1,08,1.46,24.7,M,43.1,M,,*6B
$GPGGA,145930.00,5524.63205,N,01023.66010,E,1,08,1.04,23.4,M,43.1,M,,*6D
$GPGGA,145940.00,5524.63172,N,01023.66228,E,1,08,1.04,22.8,M,43.1,M,,*6D
$GPGGA,145950.00,5524.63253,N,01023.65423,E,1,08,1.04,25.9,M,43.1,M,,*64
$GPGGA,150000.00,5524.63301,N,01023.64962,E,1,08,1.04,27.3,M,43.1,M,,*6B
$GPGGA,150010.00,5524.63335,N,01023.64680,E,1,08,1.04,28.2,M,43.1,M,,*60
$GPGGA,150020.00,5524.63351,N,01023.64576,E,1,08,1.04,28.8,M,43.1,M,,*61
$GPGGA,150030.00,5524.63357,N,01023.64520,E,1,08,1.46,29.7,M,43.1,M,,*6D
$GPGGA,150040.00,5524.63353,N,01023.64569,E,1,08,1.62,30.3,M,43.1,M,,*69
$GPGGA,150050.00,5524.63354,N,01023.64597,E,1,07,1.62,30.6,M,43.1,M,,*64
$GPGGA,150100.00,5524.63373,N,01023.64480,E,1,07,1.62,31.3,M,43.1,M,,*66
$GPGGA,150110.00,5524.63433,N,01023.63973,E,1,07,1.45,33.5,M,43.1,M,,*63
$GPGGA,150120.00,5524.63410,N,01023.64183,E,1,08,1.45,32.9,M,43.1,M,,*63
$GPGGA,150130.00,5524.63392,N,01023.64351,E,1,08,1.45,32.5,M,43.1,M,,*6E
$GPGGA,150140.00,5524.63378,N,01023.64458,E,1,07,1.45,32.3,M,43.1,M,,*6A
$GPGGA,150150.00,5524.63365,N,01023.64516,E,1,08,1.45,32.3,M,43.1,M,,*63
$GPGGA,150200.00,5524.63356,N,01023.64556,E,1,08,1.45,32.3,M,43.1,M,,*61
$GPGGA,150210.00,5524.63346,N,01023.64637,E,1,09,1.45,31.8,M,43.1,M,,*6C
$GPGGA,150220.00,5524.63318,N,01023.64856,E,1,08,1.45,30.5,M,43.1,M,,*60
$GPGGA,150230.00,5524.63269,N,01023.65251,E,1,08,1.03,28.7,M,43.1,M,,*63
$GPGGA,150240.00,5524.63220,N,01023.65692,E,1,07,1.45,26.9,M,43.1,M,,*6F
$GPGGA,150250.00,5524.63220,N,01023.65684,E,1,07,1.45,26.7,M,43.1,M,,*67
$GPGGA,150300.00,5524.63236,N,01023.65537,E,1,07,1.45,27.1,M,43.1,M,,*68
$GPGGA,150310.00,5524.63241,N,01023.65506,E,1,08,1.45,27.1,M,43.1,M,,*64
$GPGGA,150320.00,5524.63241,N,01023.65504,E,1,08,1.03,27.2,M,43.1,M,,*64
$GPGGA,150330.00,5524.63235,N,01023.65556,E,1,08,1.03,27.0,M,43.1,M,,*63
$GPGGA,150340.00,5524.63222,N,01023.65607,E,1,08,1.03,26.6,M,43.1,M,,*62
$GPGGA,150350.00,5524.63190,N,01023.65855,E,1,08,1.03,25.2,M,43.1,M,,*67
$GPGGA,150400.00,5524.63131,N,01023.66410,E,1,08,1.03,22.5,M,43.1,M,,*60
$GPGGA,150410.00,5524.63127,N,01023.66411,E,1,07,1.45,22.2,M,43.1,M,,*6D
$GPGGA,150420.00,5524.63146,N,01023.66203,E,1,08,1.05,22.5,M,43.1,M,,*60
$GPGGA,150430.00,5524.63170,N,01023.65945,E,1,08,1.05,23.3,M,43.1,M,,*69
$GPGGA,150440.00,5524.63189,N,01023.65766,E,1,07,1.45,23.8,M,43.1,M,,*67
$GPGGA,150450.00,5524.63194,N,01023.65746,E,1,08,1.05,23.9,M,43.1,M,,*62
$GPGGA,150500.00,5524.63191,N,01023.65779,E,1,08,1.05,23.8,M,43.1,M,,*6E
$GPGGA,150510.00,5524.63177,N,01023.65916,E,1,07,1.45,23.5,M,43.1,M,,*66
$GPGGA,150520.00,5524.63167,N,01023.66059,E,1,08,1.05,23.2,M,43.1,M,,*69
$GPGGA,150530.00,5524.63145,N,01023.66329,E,1,07,1.45,22.4,M,43.1,M,,*60
$GPGGA,150540.00,5524.63117,N,01023.66627,E,1,07,1.45,21.3,M,43.1,M,,*6F
$GPGGA,150550.00,5524.63109,N,01023.66658,E,1,07,1.45,21.2,M,43.1,M,,*68
$GPGGA,150600.00,5524.63095,N,01023.66771,E,1,08,1.44,20.8,M,43.1,M,,*65
$GPGGA,150610.00,5524.63092,N,01023.66771,E,1,07,1.08,20.7,M,43.1,M,,*6B
$GPGGA,150620.00,5524.63088,N,01023.66803,E,1,07,1.44,20.3,M,43.1,M,,*65
$GPGGA,150630.00,5524.63077,N,01023.66880,E,1,08,1.44,19.8,M,43.1,M,,*61
$GPGGA,150640.00,5524.63073,N,01023.66911,E,1,07,1.44,19.6,M,43.1,M,,*6A
$GPGGA,150650.00,5524.63072,N,01023.66938,E,1,08,1.98,19.4,M,43.1,M,,*6D
$GPGGA,150700.00,5524.63075,N,01023.66908,E,1,08,1.08,19.6,M,43.1,M,,*66
$GPGGA,150710.00,5524.63080,N,01023.66876,E,1,07,1.44,19.6,M,43.1,M,,*62
$GPGGA,150720.00,5524.63086,N,01023.66857,E,1,08,1.02,19.6,M,43.1,M,,*69
$GPGGA,150730.00,5524.63085,N,01023.66854,E,1,08,1.02,19.6,M,43.1,M,,*68
$GPGGA,150740.00,5524.63069,N,01023.66999,E,1,07,1.44,19.0,M,43.1,M,,*66
$GPGGA,150750.00,5524.63056,N,01023.67150,E,1,09,0.90,18.5,M,43.1,M,,*65
$GPGGA,150800.00,5524.63058,N,01023.67140,E,1,08,1.05,18.8,M,43.1,M,,*61
$GPGGA,150810.00,5524.63073,N,01023.67067,E,1,08,1.44,19.3,M,43.1,M,,*62
$GPGGA,150820.00,5524.63097,N,01023.66831,E,1,07,1.44,20.2,M,43.1,M,,*65
$GPGGA,150830.00,5524.63107,N,01023.66725,E,1,07,1.44,20.7,M,43.1,M,,*63
$GPGGA,150840.00,5524.63117,N,01023.66657,E,1,08,1.44,20.9,M,43.1,M,,*60
$GPGGA,150850.00,5524.63124,N,01023.66560,E,1,09,0.89,21.3,M,43.1,M,,*6C
$GPGGA,150900.00,5524.63126,N,01023.66458,E,1,09,0.92,21.7,M,43.1,M,,*6E
$GPGGA,150910.00,5524.63121,N,01023.66413,E,1,09,1.05,22.0,M,43.1,M,,*6C
$GPGGA,150920.00,5524.63099,N,01023.66602,E,1,09,1.05,21.0,M,43.1,M,,*6C
$GPGGA,150930.00,5524.63092,N,01023.66694,E,1,08,1.02,20.8,M,43.1,M,,*66
$GPGGA,150940.00,5524.63096,N,01023.66652,E,1,09,0.89,21.3,M,43.1,M,,*66
$GPGGA,150950.00,5524.63099,N,01023.66576,E,1,09,0.89,21.7,M,43.1,M,,*69
$GPGGA,151000.00,5524.63098,N,01023.66554,E,1,07,1.44,21.6,M,43.1,M,,*6A
$GPGGA,151010.00,5524.63101,N,01023.66519,E,1,07,1.44,21.5,M,43.1,M,,*60
$GPGGA,151020.00,5524.63106,N,01023.66476,E,1,07,1.44,21.3,M,43.1,M,,*6A
$GPGGA,151030.00,5524.63111,N,01023.66412,E,1,07,1.44,21.4,M,43.1,M,,*68
$GPGGA,151040.00,5524.63119,N,01023.66319,E,1,08,1.05,21.7,M,43.1,M,,*62
$GPGGA,151050.00,5524.63123,N,01023.66300,E,1,08,1.05,21.8,M,43.1,M,,*6D
$GPGGA,151100.00,5524.63140,N,01023.66168,E,1,07,1.46,22.9,M,43.1,M,,*6A
$GPGGA,151110.00,5524.63144,N,01023.66160,E,1,07,1.46,23.2,M,43.1,M,,*6D
$GPGGA,151120.00,5524.63133,N,01023.66290,E,1,08,1.05,22.7,M,43.1,M,,*6E
$GPGGA,151130.00,5524.63118,N,01023.66396,E,1,08,1.05,22.4,M,43.1,M,,*62
$GPGGA,151140.00,5524.63128,N,01023.66250,E,1,08,1.05,23.6,M,43.1,M,,*6E
$GPGGA,151150.00,5524.63148,N,01023.65948,E,1,08,1.08,25.6,M,43.1,M,,*63
$GPGGA,151200.00,5524.63147,N,01023.65897,E,1,08,1.05,26.0,M,43.1,M,,*61
$GPGGA,151210.00,5524.63143,N,01023.65960,E,1,08,1.05,25.7,M,43.1,M,,*69
$GPGGA,151220.00,5524.63130,N,01023.66091,E,1,08,1.43,24.9,M,43.1,M,,*67
$GPGGA,151230.00,5524.63122,N,01023.66109,E,1,09,1.05,25.0,M,43.1,M,,*6E
$GPGGA,151240.00,5524.63109,N,01023.66240,E,1,08,1.43,24.3,M,43.1,M,,*6F
$GPGGA,151250.00,5524.63107,N,01023.66272,E,1,08,1.05,24.1,M,43.1,M,,*61
$GPGGA,151300.00,5524.63117,N,01023.66175,E,1,08,1.30,24.7,M,43.1,M,,*60
$GPGGA,151310.00,5524.63147,N,01023.65855,E,1,08,1.45,26.7,M,43.1,M,,*6C
$GPGGA,151320.00,5524.63158,N,01023.65721,E,1,07,1.93,27.6,M,43.1,M,,*69
$GPGGA,151330.00,5524.63161,N,01023.65666,E,1,08,1.93,28.0,M,43.1,M,,*66
$GPGGA,151340.00,5524.63169,N,01023.65563,E,1,08,1.48,28.9,M,43.1,M,,*60
$GPGGA,151350.00,5524.63183,N,01023.65281,E,1,08,1.28,31.0,M,43.1,M,,*69
$GPGGA,151400.00,5524.63189,N,01023.64921,E,1,08,1.72,34.0,M,43.1,M,,*6B
$GPGGA,151410.00,5524.63187,N,01023.64400,E,1,09,1.23,38.5,M,43.1,M,,*66
$GPGGA,151420.00,5524.63156,N,01023.64285,E,1,10,0.83,40.2,M,43.1,M,,*69
$GPGGA,151430.00,5524.63106,N,01023.64321,E,1,10,0.83,40.9,M,43.1,M,,*69
$GPGGA,151440.00,5524.63073,N,01023.64317,E,1,10,0.83,41.7,M,43.1,M,,*67
$GPGGA,151450.00,5524.63044,N,01023.64303,E,1,09,0.90,42.3,M,43.1,M,,*6A
$GPGGA,151500.00,5524.63032,N,01023.64184,E,1,08,0.95,43.2,M,43.1,M,,*66
$GPGGA,151510.00,5524.63014,N,01023.64186,E,1,09,0.92,43.3,M,43.1,M,,*66
$GPGGA,151520.00,5524.63009,N,01023.64104,E,1,08,0.92,44.1,M,43.1,M,,*67
$GPGGA,151530.00,5524.62999,N,01023.64047,E,1,09,1.43,44.9,M,43.1,M,,*65
$GPGGA,151540.00,5524.62991,N,01023.64001,E,1,08,1.43,45.5,M,43.1,M,,*64
$GPGGA,151550.00,5524.62995,N,01023.63926,E,1,09,1.43,46.2,M,43.1,M,,*6F
$GPGGA,151600.00,5524.62999,N,01023.63955,E,1,09,1.26,46.1,M,43.1,M,,*61
$GPGGA,151610.00,5524.63007,N,01023.64180,E,1,08,1.25,44.0,M,43.1,M,,*69
$GPGGA,151620.00,5524.63010,N,01023.64469,E,1,08,1.25,41.5,M,43.1,M,,*6E
$GPGGA,151630.00,5524.63006,N,01023.64739,E,1,08,0.89,39.2,M,43.1,M,,*61
$GPGGA,151640.00,5524.63000,N,01023.65076,E,1,09,0.88,36.3,M,43.1,M,,*63
$GPGGA,151650.00,5524.62996,N,01023.64920,E,1,08,0.89,37.6,M,43.1,M,,*6A
$GPGGA,151700.00,5524.62978,N,01023.64824,E,1,08,0.89,38.9,M,43.1,M,,*6B
$GPGGA,151710.00,5524.62963,N,01023.64755,E,1,09,0.88,39.9,M,43.1,M,,*68
$GPGGA,151720.00,5524.62947,N,01023.64750,E,1,09,0.88,40.3,M,43.1,M,,*6C
$GPGGA,151730.00,5524.62930,N,01023.64730,E,1,09,0.88,40.9,M,43.1,M,,*61
$GPGGA,151740.00,5524.62914,N,01023.64668,E,1,09,0.92,41.6,M,43.1,M,,*69
$GPGGA,151750.00,5524.62898,N,01023.64641,E,1,09,0.88,42.1,M,43.1,M,,*69
$GPGGA,151800.00,5524.62880,N,01023.64662,E,1,09,0.88,42.3,M,43.1,M,,*69
$GPGGA,151810.00,5524.62860,N,01023.64692,E,1,08,0.89,42.3,M,43.1,M,,*69
$GPGGA,151820.00,5524.62847,N,01023.64658,E,1,09,0.88,42.8,M,43.1,M,,*62
$GPGGA,151830.00,5524.62838,N,01023.64667,E,1,09,0.88,42.9,M,43.1,M,,*66
$GPGGA,151840.00,5524.62844,N,01023.64576,E,1,09,0.88,43.5,M,43.1,M,,*64
$GPGGA,151850.00,5524.62842,N,01023.64482,E,1,09,0.88,44.2,M,43.1,M,,*69
$GPGGA,151900.00,5524.62840,N,01023.64455,E,1,09,0.88,44.4,M,43.1,M,,*63
$GPGGA,151910.00,5524.62838,N,01023.64425,E,1,09,1.11,44.2,M,43.1,M,,*6D
$GPGGA,151920.00,5524.62842,N,01023.64362,E,1,09,1.11,44.2,M,43.1,M,,*67
$GPGGA,151930.00,5524.62854,N,01023.64357,E,1,09,1.11,43.3,M,43.1,M,,*61
$GPGGA,151940.00,5524.62849,N,01023.64464,E,1,09,0.89,42.2,M,43.1,M,,*6D
$GPGGA,151950.00,5524.62855,N,01023.64533,E,1,09,0.88,41.1,M,43.1,M,,*63
$GPGGA,152000.00,5524.62860,N,01023.64580,E,1,09,0.88,40.5,M,43.1,M,,*67
$GPGGA,152010.00,5524.62877,N,01023.64561,E,1,09,0.88,40.4,M,43.1,M,,*6E
$GPGGA,152020.00,5524.62906,N,01023.64412,E,1,09,0.88,41.0,M,43.1,M,,*6A
$GPGGA,152030.00,5524.62932,N,01023.64297,E,1,09,0.87,41.5,M,43.1,M,,*6D
$GPGGA,152040.00,5524.62944,N,01023.64318,E,1,09,0.87,41.2,M,43.1,M,,*6A
$GPGGA,152050.00,5524.62929,N,01023.64426,E,1,09,0.87,40.5,M,43.1,M,,*6C
$GPGGA,152100.00,5524.62915,N,01023.64433,E,1,09,0.91,40.7,M,43.1,M,,*66
$GPGGA,152110.00,5524.62901,N,01023.64442,E,1,09,0.87,40.9,M,43.1,M,,*6D
$GPGGA,152120.00,5524.62899,N,01023.64481,E,1,09,0.87,40.6,M,43.1,M,,*6E
$GPGGA,152130.00,5524.62883,N,01023.64533,E,1,09,0.91,40.4,M,43.1,M,,*69
$GPGGA,152140.00,5524.62861,N,01023.64610,E,1,09,0.89,39.9,M,43.1,M,,*6A
$GPGGA,152150.00,5524.62807,N,01023.64835,E,1,09,0.89,38.9,M,43.1,M,,*63
$GPGGA,152200.00,5524.62766,N,01023.64925,E,1,09,0.89,38.7,M,43.1,M,,*63
$GPGGA,152210.00,5524.62737,N,01023.64971,E,1,09,0.87,38.6,M,43.1,M,,*68
$GPGGA,152220.00,5524.62711,N,01023.65029,E,1,09,0.87,38.4,M,43.1,M,,*68
$GPGGA,152230.00,5524.62693,N,01023.65116,E,1,09,0.87,38.1,M,43.1,M,,*6A
$GPGGA,152240.00,5524.62677,N,01023.65157,E,1,09,0.87,38.1,M,43.1,M,,*62
$GPGGA,152250.00,5524.62665,N,01023.65161,E,1,08,1.10,38.3,M,43.1,M,,*69
$GPGGA,152300.00,5524.62671,N,01023.65217,E,1,08,1.10,37.5,M,43.1,M,,*63
$GPGGA,152310.00,5524.62666,N,01023.65214,E,1,08,1.13,37.2,M,43.1,M,,*63
$GPGGA,152320.00,5524.62654,N,01023.65226,E,1,06,2.15,37.0,M,43.1,M,,*69
$GPGGA,152330.00,5524.62674,N,01023.65200,E,1,09,1.42,36.6,M,43.1,M,,*67
$GPGGA,152340.00,5524.62696,N,01023.65064,E,1,08,1.42,36.9,M,43.1,M,,*62
$GPGGA,152350.00,5524.62695,N,01023.65154,E,1,09,1.13,36.5,M,43.1,M,,*6B
$GPGGA,152400.00,5524.62709,N,01023.65236,E,1,09,0.87,35.9,M,43.1,M,,*69
$GPGGA,152410.00,5524.62731,N,01023.65210,E,1,09,0.87,35.9,M,43.1,M,,*67
$GPGGA,152420.00,5524.62729,N,01023.65170,E,1,09,0.87,36.3,M,43.1,M,,*61
$GPGGA,152430.00,5524.62724,N,01023.65256,E,1,09,0.87,35.8,M,43.1,M,,*62
$GPGGA,152440.00,5524.62726,N,01023.65408,E,1,09,0.87,34.6,M,43.1,M,,*65
$GPGGA,152450.00,5524.62737,N,01023.65491,E,1,09,0.87,33.9,M,43.1,M,,*6C
$GPGGA,152500.00,5524.62745,N,01023.65540,E,1,09,0.87,33.5,M,43.1,M,,*6C
$GPGGA,152510.00,5524.62756,N,01023.65503,E,1,09,0.87,33.7,M,43.1,M,,*6A
$GPGGA,152520.00,5524.62777,N,01023.65469,E,1,09,0.87,33.8,M,43.1,M,,*68
$GPGGA,152530.00,5524.62790,N,01023.65406,E,1,09,1.17,34.5,M,43.1,M,,*6B
$GPGGA,152540.00,5524.62818,N,01023.65350,E,1,09,1.17,35.3,M,43.1,M,,*60
$GPGGA,152550.00,5524.62842,N,01023.65293,E,1,08,1.59,35.9,M,43.1,M,,*61
$GPGGA,152600.00,5524.62858,N,01023.65194,E,1,08,1.58,37.0,M,43.1,M,,*62
$GPGGA,152610.00,5524.62879,N,01023.65118,E,1,08,1.58,37.6,M,43.1,M,,*62
$GPGGA,152620.00,5524.62907,N,01023.64990,E,1,08,1.58,38.4,M,43.1,M,,*6D
$GPGGA,152630.00,5524.62914,N,01023.64785,E,1,08,1.58,40.3,M,43.1,M,,*6C
$GPGGA,152640.00,5524.62917,N,01023.64611,E,1,08,1.57,41.7,M,43.1,M,,*6E
$GPGGA,152650.00,5524.62930,N,01023.64471,E,1,07,1.67,42.9,M,43.1,M,,*6F
$GPGGA,152700.00,5524.62941,N,01023.64417,E,1,08,1.57,43.1,M,43.1,M,,*68
$GPGGA,152710.00,5524.62942,N,01023.64418,E,1,08,1.67,43.1,M,43.1,M,,*66
$GPGGA,152720.00,5524.62937,N,01023.64456,E,1,07,1.56,42.8,M,43.1,M,,*68
$GPGGA,152730.00,5524.62937,N,01023.64471,E,1,07,1.56,42.7,M,43.1,M,,*63
$GPGGA,152740.00,5524.62919,N,01023.64566,E,1,07,1.56,42.3,M,43.1,M,,*6B
$GPGGA,152750.00,5524.62907,N,01023.64593,E,1,08,1.56,42.3,M,43.1,M,,*60
$GPGGA,152800.00,5524.62909,N,01023.64583,E,1,07,1.55,42.4,M,43.1,M,,*6E
$GPGGA,152810.00,5524.62908,N,01023.64525,E,1,07,1.55,42.8,M,43.1,M,,*6E
$GPGGA,152820.00,5524.62920,N,01023.64501,E,1,08,1.14,42.7,M,43.1,M,,*64
$GPGGA,152830.00,5524.62932,N,01023.64505,E,1,08,1.55,42.5,M,43.1,M,,*65
$GPGGA,152840.00,5524.62939,N,01023.64545,E,1,07,1.54,42.0,M,43.1,M,,*66
$GPGGA,152850.00,5524.62936,N,01023.64486,E,1,07,1.54,42.6,M,43.1,M,,*60
$GPGGA,152900.00,5524.62933,N,01023.64365,E,1,07,1.54,43.5,M,43.1,M,,*69
$GPGGA,152910.00,5524.62951,N,01023.64292,E,1,07,1.22,43.8,M,43.1,M,,*69
$GPGGA,152920.00,5524.62951,N,01023.64241,E,1,06,1.83,44.0,M,43.1,M,,*61
$GPGGA,152930.00,5524.62943,N,01023.64144,E,1,07,3.53,44.9,M,43.1,M,,*62
$GPGGA,152940.00,5524.62937,N,01023.64225,E,1,06,1.83,44.0,M,43.1,M,,*65
$GPGGA,152950.00,5524.62935,N,01023.64378,E,1,07,1.64,42.5,M,43.1,M,,*64
$GPGGA,153000.00,5524.62936,N,01023.64414,E,1,06,1.82,41.9,M,43.1,M,,*61
$GPGGA,153010.00,5524.62945,N,01023.64356,E,1,07,1.82,42.2,M,43.1,M,,*6C
$GPGGA,153020.00,5524.62963,N,01023.64273,E,1,07,1.52,42.4,M,43.1,M,,*66
$GPGGA,153030.00,5524.62980,N,01023.64051,E,1,07,1.52,43.8,M,43.1,M,,*65
$GPGGA,153040.00,5524.62964,N,01023.63999,E,1,07,1.52,44.5,M,43.1,M,,*68
$GPGGA,153050.00,5524.62949,N,01023.64075,E,1,07,1.51,44.2,M,43.1,M,,*6E
$GPGGA,153100.00,5524.62936,N,01023.64186,E,1,07,1.51,43.3,M,43.1,M,,*69
$GPGGA,153110.00,5524.62926,N,01023.64230,E,1,07,1.51,43.1,M,43.1,M,,*65
$GPGGA,153120.00,5524.62913,N,01023.64300,E,1,07,1.51,42.7,M,43.1,M,,*65
$GPGGA,153130.00,5524.62898,N,01023.64373,E,1,07,1.50,42.4,M,43.1,M,,*60
$GPGGA,153140.00,5524.62890,N,01023.64405,E,1,07,1.50,42.3,M,43.1,M,,*6E
$GPGGA,153150.00,5524.62895,N,01023.64467,E,1,07,1.50,41.9,M,43.1,M,,*67
$GPGGA,153200.00,5524.62879,N,01023.64516,E,1,07,1.50,41.6,M,43.1,M,,*6B
$GPGGA,153210.00,5524.62863,N,01023.64537,E,1,07,1.49,41.8,M,43.1,M,,*64
$GPGGA,153220.00,5524.62863,N,01023.64535,E,1,07,1.49,41.9,M,43.1,M,,*64
$GPGGA,153230.00,5524.62855,N,01023.64584,E,1,07,1.49,41.5,M,43.1,M,,*66
$GPGGA,153240.00,5524.62849,N,01023.64622,E,1,07,1.49,41.0,M,43.1,M,,*66
$GPGGA,153250.00,5524.62850,N,01023.64608,E,1,07,1.48,40.9,M,43.1,M,,*6E
$GPGGA,153300.00,5524.62843,N,01023.64642,E,1,07,1.48,40.6,M,43.1,M,,*69
$GPGGA,153310.00,5524.62849,N,01023.64675,E,1,08,1.48,40.2,M,43.1,M,,*6D
$GPGGA,153320.00,5524.62853,N,01023.64700,E,1,07,1.48,39.8,M,43.1,M,,*6D
$GPGGA,153330.00,5524.62849,N,01023.64674,E,1,07,1.47,40.2,M,43.1,M,,*6E
$GPGGA,153340.00,5524.62829,N,01023.64701,E,1,08,1.10,40.2,M,43.1,M,,*61
$GPGGA,153350.00,5524.62830,N,01023.64727,E,1,08,1.47,39.9,M,43.1,M,,*6B
$GPGGA,153400.00,5524.62830,N,01023.64749,E,1,08,1.10,39.6,M,43.1,M,,*6C
$GPGGA,153410.00,5524.62824,N,01023.64767,E,1,08,1.09,39.4,M,43.1,M,,*6E
$GPGGA,153420.00,5524.62826,N,01023.64877,E,1,08,1.09,38.3,M,43.1,M,,*67
$GPGGA,153430.00,5524.62824,N,01023.64989,E,1,07,1.19,37.4,M,43.1,M,,*62
$GPGGA,153440.00,5524.62825,N,01023.64985,E,1,07,1.19,37.5,M,43.1,M,,*69
$GPGGA,153450.00,5524.62822,N,01023.65015,E,1,07,1.45,37.1,M,43.1,M,,*63
$GPGGA,153500.00,5524.62812,N,01023.65002,E,1,07,1.76,37.3,M,43.1,M,,*60
$GPGGA,153510.00,5524.62821,N,01023.64841,E,1,08,1.09,38.9,M,43.1,M,,*6D
$GPGGA,153520.00,5524.62843,N,01023.64682,E,1,07,1.45,39.9,M,43.1,M,,*6D
$GPGGA,153530.00,5524.62849,N,01023.64645,E,1,07,1.44,40.0,M,43.1,M,,*6B
$GPGGA,153540.00,5524.62843,N,01023.64636,E,1,08,1.44,40.1,M,43.1,M,,*6C
$GPGGA,153550.00,5524.62845,N,01023.64579,E,1,08,1.08,40.4,M,43.1,M,,*6E
$GPGGA,153600.00,5524.62842,N,01023.64600,E,1,07,1.44,40.2,M,43.1,M,,*63
$GPGGA,153610.00,5524.62826,N,01023.64603,E,1,07,1.44,40.4,M,43.1,M,,*65
$GPGGA,153620.00,5524.62833,N,01023.64665,E,1,08,1.43,40.1,M,43.1,M,,*6F
$GPGGA,153630.00,5524.62824,N,01023.64786,E,1,08,1.08,38.7,M,43.1,M,,*62
$GPGGA,153640.00,5524.62777,N,01023.64906,E,1,07,1.43,37.3,M,43.1,M,,*61
$GPGGA,153650.00,5524.62729,N,01023.64946,E,1,07,1.43,36.7,M,43.1,M,,*6A
$GPGGA,153700.00,5524.62706,N,01023.65021,E,1,07,1.42,35.7,M,43.1,M,,*68
$GPGGA,153710.00,5524.62689,N,01023.65051,E,1,07,1.42,35.4,M,43.1,M,,*6B
$GPGGA,153720.00,5524.62691,N,01023.64996,E,1,07,1.74,35.9,M,43.1,M,,*6A
$GPGGA,153730.00,5524.62709,N,01023.64975,E,1,07,1.17,36.2,M,43.1,M,,*6B
$GPGGA,153740.00,5524.62723,N,01023.64969,E,1,06,1.73,36.5,M,43.1,M,,*6D
$GPGGA,153750.00,5524.62723,N,01023.64995,E,1,07,1.41,36.3,M,43.1,M,,*69
$GPGGA,153800.00,5524.62716,N,01023.65067,E,1,06,1.55,35.3,M,43.1,M,,*67
$GPGGA,153810.00,5524.62716,N,01023.65061,E,1,06,1.55,34.8,M,43.1,M,,*6A
$GPGGA,153820.00,5524.62726,N,01023.64951,E,1,07,1.40,35.5,M,43.1,M,,*68
$GPGGA,153830.00,5524.62729,N,01023.64984,E,1,06,1.73,35.1,M,43.1,M,,*6B
$GPGGA,153840.00,5524.62730,N,01023.64998,E,1,06,1.54,34.9,M,43.1,M,,*65
$GPGGA,153850.00,5524.62738,N,01023.64849,E,1,07,1.40,36.0,M,43.1,M,,*6E
$GPGGA,153900.00,5524.62748,N,01023.64833,E,1,07,1.40,35.8,M,43.1,M,,*6B
$GPGGA,153910.00,5524.62737,N,01023.64982,E,1,08,1.39,34.3,M,43.1,M,,*62
$GPGGA,153920.00,5524.62723,N,01023.65146,E,1,07,1.39,33.0,M,43.1,M,,*6E
$GPGGA,153930.00,5524.62723,N,01023.65321,E,1,08,1.39,31.7,M,43.1,M,,*66
$GPGGA,153940.00,5524.62710,N,01023.65297,E,1,07,1.16,32.3,M,43.1,M,,*68
$GPGGA,153950.00,5524.62715,N,01023.65243,E,1,08,1.16,33.0,M,43.1,M,,*68
$GPGGA,154000.00,5524.62743,N,01023.65056,E,1,07,1.38,34.2,M,43.1,M,,*60
$GPGGA,154010.00,5524.62742,N,01023.64895,E,1,08,1.38,35.7,M,43.1,M,,*6D
$GPGGA,154020.00,5524.62737,N,01023.64901,E,1,06,1.71,35.9,M,43.1,M,,*6D
$GPGGA,154030.00,5524.62744,N,01023.64983,E,1,07,1.71,35.3,M,43.1,M,,*69
$GPGGA,154040.00,5524.62737,N,01023.65046,E,1,08,1.37,35.1,M,43.1,M,,*64
$GPGGA,154050.00,5524.62715,N,01023.65048,E,1,07,1.71,35.5,M,43.1,M,,*62
$GPGGA,154100.00,5524.62724,N,01023.65114,E,1,07,1.37,35.1,M,43.1,M,,*6A
$GPGGA,154110.00,5524.62730,N,01023.65100,E,1,07,1.37,35.4,M,43.1,M,,*6E
$GPGGA,154120.00,5524.62738,N,01023.65023,E,1,07,1.36,36.2,M,43.1,M,,*61
$GPGGA,154130.00,5524.62750,N,01023.64969,E,1,07,1.36,36.7,M,43.1,M,,*6D
$GPGGA,154140.00,5524.62758,N,01023.64905,E,1,07,1.36,37.2,M,43.1,M,,*6C
$GPGGA,154150.00,5524.62762,N,01023.64863,E,1,07,1.36,37.6,M,43.1,M,,*61
$GPGGA,154200.00,5524.62774,N,01023.64861,E,1,07,1.35,37.6,M,43.1,M,,*61
$GPGGA,154210.00,5524.62764,N,01023.64916,E,1,07,1.35,37.3,M,43.1,M,,*65
$GPGGA,154220.00,5524.62745,N,01023.64950,E,1,07,1.35,37.4,M,43.1,M,,*60
$GPGGA,154230.00,5524.62726,N,01023.64973,E,1,06,1.69,37.6,M,43.1,M,,*6F
$GPGGA,154240.00,5524.62714,N,01023.64997,E,1,06,1.69,37.6,M,43.1,M,,*63
$GPGGA,154250.00,5524.62719,N,01023.64945,E,1,07,1.34,37.8,M,43.1,M,,*67
$GPGGA,154300.00,5524.62710,N,01023.64975,E,1,06,1.69,37.9,M,43.1,M,,*61
$GPGGA,154310.00,5524.62706,N,01023.65022,E,1,07,1.34,37.8,M,43.1,M,,*65
$GPGGA,154320.00,5524.62715,N,01023.65044,E,1,07,1.34,37.6,M,43.1,M,,*6A
$GPGGA,154330.00,5524.62710,N,01023.65004,E,1,07,1.34,37.9,M,43.1,M,,*65
$GPGGA,154340.00,5524.62696,N,01023.65022,E,1,07,1.33,38.0,M,43.1,M,,*68
$GPGGA,154350.00,5524.62687,N,01023.65070,E,1,07,1.33,37.9,M,43.1,M,,*68
$GPGGA,154400.00,5524.62698,N,01023.65115,E,1,07,1.33,37.6,M,43.1,M,,*69
$GPGGA,154410.00,5524.62713,N,01023.65163,E,1,07,1.33,37.3,M,43.1,M,,*6E
$GPGGA,154420.00,5524.62717,N,01023.65215,E,1,08,1.33,37.0,M,43.1,M,,*67
$GPGGA,154430.00,5524.62725,N,01023.65235,E,1,07,1.32,36.7,M,43.1,M,,*6D
$GPGGA,154440.00,5524.62716,N,01023.65248,E,1,07,1.32,36.7,M,43.1,M,,*60
$GPGGA,154450.00,5524.62701,N,01023.65214,E,1,07,1.32,37.0,M,43.1,M,,*68
$GPGGA,154500.00,5524.62692,N,01023.65185,E,1,07,1.32,37.2,M,43.1,M,,*6E
$GPGGA,154510.00,5524.62689,N,01023.65193,E,1,07,1.68,37.2,M,43.1,M,,*6D
$GPGGA,154520.00,5524.62690,N,01023.65181,E,1,06,1.68,37.1,M,43.1,M,,*67
$GPGGA,154530.00,5524.62703,N,01023.65200,E,1,06,1.67,36.8,M,43.1,M,,*60
$GPGGA,154540.00,5524.62714,N,01023.65206,E,1,07,1.31,36.6,M,43.1,M,,*6B
$GPGGA,154550.00,5524.62725,N,01023.65129,E,1,06,1.67,36.9,M,43.1,M,,*6B
$GPGGA,154600.00,5524.62723,N,01023.65053,E,1,06,1.67,37.4,M,43.1,M,,*6B
$GPGGA,154610.00,5524.62752,N,01023.64965,E,1,07,1.13,37.8,M,43.1,M,,*6F
$GPGGA,154620.00,5524.62759,N,01023.64877,E,1,07,1.13,38.5,M,43.1,M,,*67
$GPGGA,154630.00,5524.62746,N,01023.64893,E,1,08,1.67,38.4,M,43.1,M,,*6F
$GPGGA,154640.00,5524.62721,N,01023.64845,E,1,07,1.13,38.8,M,43.1,M,,*62
$GPGGA,154650.00,5524.62716,N,01023.64763,E,1,07,1.13,39.4,M,43.1,M,,*61
$GPGGA,154700.00,5524.62725,N,01023.64688,E,1,07,1.13,39.9,M,43.1,M,,*6C
$GPGGA,154710.00,5524.62764,N,01023.64610,E,1,07,1.13,40.1,M,43.1,M,,*6F
$GPGGA,154720.00,5524.62760,N,01023.64550,E,1,07,1.13,40.5,M,43.1,M,,*6B
$GPGGA,154730.00,5524.62765,N,01023.64567,E,1,06,1.66,40.2,M,43.1,M,,*6F
$GPGGA,154740.00,5524.62752,N,01023.64626,E,1,07,1.29,39.7,M,43.1,M,,*6B
$GPGGA,154750.00,5524.62736,N,01023.64723,E,1,07,1.45,39.0,M,43.1,M,,*61
$GPGGA,154800.00,5524.62709,N,01023.64789,E,1,06,1.44,38.7,M,43.1,M,,*61
$GPGGA,154810.00,5524.62714,N,01023.64838,E,1,07,1.44,38.2,M,43.1,M,,*6D
$GPGGA,154820.00,5524.62716,N,01023.64874,E,1,07,1.44,37.9,M,43.1,M,,*60
$GPGGA,154830.00,5524.62701,N,01023.64866,E,1,07,1.08,38.0,M,43.1,M,,*6A
$GPGGA,154840.00,5524.62710,N,01023.64880,E,1,06,1.44,37.8,M,43.1,M,,*6B
$GPGGA,154850.00,5524.62671,N,01023.64880,E,1,06,1.44,38.0,M,43.1,M,,*6B
$GPGGA,154900.00,5524.62651,N,01023.64868,E,1,05,3.23,38.1,M,43.1,M,,*6A
$GPGGA,154910.00,5524.62673,N,01023.64882,E,1,06,1.66,37.7,M,43.1,M,,*66
$GPGGA,154920.00,5524.62684,N,01023.64896,E,1,07,1.66,37.4,M,43.1,M,,*6A
$GPGGA,154930.00,5524.62680,N,01023.64829,E,1,07,1.43,37.6,M,43.1,M,,*6E
$GPGGA,154940.00,5524.62664,N,01023.64832,E,1,05,3.23,37.7,M,43.1,M,,*6E
$GPGGA,154950.00,5524.62681,N,01023.64876,E,1,06,1.66,37.2,M,43.1,M,,*61
$GPGGA,155000.00,5524.62696,N,01023.64928,E,1,07,1.66,36.5,M,43.1,M,,*67
$GPGGA,155010.00,5524.62699,N,01023.64938,E,1,07,1.66,36.3,M,43.1,M,,*6E
$GPGGA,155020.00,5524.62708,N,01023.64960,E,1,07,1.26,36.0,M,43.1,M,,*6E
$GPGGA,155030.00,5524.62707,N,01023.65036,E,1,07,1.25,35.5,M,43.1,M,,*6E
$GPGGA,155040.00,5524.62675,N,01023.65027,E,1,07,1.25,35.7,M,43.1,M,,*6F
$GPGGA,155050.00,5524.62693,N,01023.65006,E,1,07,1.25,35.7,M,43.1,M,,*65
$GPGGA,155100.00,5524.62694,N,01023.65009,E,1,07,1.25,35.7,M,43.1,M,,*69
$GPGGA,155110.00,5524.62710,N,01023.65027,E,1,07,1.25,35.4,M,43.1,M,,*6A
$GPGGA,155120.00,5524.62724,N,01023.65070,E,1,07,1.65,34.8,M,43.1,M,,*65
$GPGGA,155130.00,5524.62680,N,01023.65084,E,1,07,1.24,35.0,M,43.1,M,,*6C
$GPGGA,155140.00,5524.62666,N,01023.65093,E,1,07,1.24,35.2,M,43.1,M,,*67
$GPGGA,155150.00,5524.62673,N,01023.65101,E,1,07,1.24,35.0,M,43.1,M,,*6A
$GPGGA,155200.00,5524.62674,N,01023.65108,E,1,07,1.24,34.7,M,43.1,M,,*64
$GPGGA,155210.00,5524.62664,N,01023.65123,E,1,07,1.24,34.0,M,43.1,M,,*6A
$GPGGA,155220.00,5524.62637,N,01023.65141,E,1,07,1.24,32.4,M,43.1,M,,*69
$GPGGA,155230.00,5524.62566,N,01023.65193,E,1,07,1.23,31.3,M,43.1,M,,*63
$GPGGA,155240.00,5524.62542,N,01023.65240,E,1,06,1.40,30.7,M,43.1,M,,*6E
$GPGGA,155250.00,5524.62546,N,01023.65259,E,1,06,1.65,30.7,M,43.1,M,,*64
$GPGGA,155300.00,5524.62556,N,01023.65280,E,1,06,1.65,30.6,M,43.1,M,,*64
$GPGGA,155310.00,5524.62558,N,01023.65253,E,1,07,1.65,31.3,M,43.1,M,,*60
$GPGGA,155320.00,5524.62645,N,01023.65148,E,1,07,1.23,32.2,M,43.1,M,,*65
$GPGGA,155330.00,5524.62749,N,01023.65159,E,1,06,1.65,32.0,M,43.1,M,,*68
$GPGGA,155340.00,5524.62722,N,01023.65161,E,1,06,1.65,32.5,M,43.1,M,,*6C
$GPGGA,155350.00,5524.62659,N,01023.65187,E,1,06,1.65,31.7,M,43.1,M,,*69
$GPGGA,155400.00,5524.62677,N,01023.65176,E,1,07,1.22,31.7,M,43.1,M,,*6B
$GPGGA,155410.00,5524.62687,N,01023.65174,E,1,06,1.65,32.3,M,43.1,M,,*62
$GPGGA,155420.00,5524.62757,N,01023.65161,E,1,06,1.65,33.7,M,43.1,M,,*6C
$GPGGA,155430.00,5524.62873,N,01023.65192,E,1,06,1.65,34.0,M,43.1,M,,*68
$GPGGA,155440.00,5524.62912,N,01023.65294,E,1,06,3.21,32.8,M,43.1,M,,*60
$GPGGA,155450.00,5524.62889,N,01023.65532,E,1,06,1.65,28.4,M,43.1,M,,*6C
$GPGGA,155500.00,5524.62858,N,01023.65763,E,1,06,1.65,24.3,M,43.1,M,,*69
$GPGGA,155510.00,5524.62853,N,01023.65902,E,1,09,1.57,22.1,M,43.1,M,,*60
$GPGGA,155520.00,5524.62825,N,01023.66068,E,1,08,1.57,19.5,M,43.1,M,,*69
$GPGGA,155530.00,5524.62815,N,01023.66220,E,1,09,1.20,17.9,M,43.1,M,,*66
$GPGGA,155540.00,5524.62902,N,01023.66252,E,1,08,1.10,19.2,M,43.1,M,,*64
$GPGGA,155550.00,5524.62982,N,01023.66272,E,1,08,1.10,20.6,M,43.1,M,,*61
$GPGGA,155600.00,5524.63007,N,01023.66303,E,1,08,1.10,20.5,M,43.1,M,,*66
$GPGGA,155610.00,5524.63028,N,01023.66324,E,1,07,1.20,20.5,M,43.1,M,,*63
$GPGGA,155620.00,5524.63011,N,01023.66393,E,1,08,1.20,19.3,M,43.1,M,,*65
$GPGGA,155630.00,5524.62993,N,01023.66504,E,1,07,1.57,17.9,M,43.1,M,,*65
$GPGGA,155640.00,5524.62981,N,01023.66604,E,1,06,2.93,16.9,M,43.1,M,,*69
$GPGGA,155650.00,5524.62965,N,01023.66702,E,1,07,2.94,15.8,M,43.1,M,,*61
$GPGGA,155700.00,5524.62954,N,01023.66792,E,1,06,2.94,14.9,M,43.1,M,,*6F
$GPGGA,155710.00,5524.62998,N,01023.66813,E,1,08,1.57,15.8,M,43.1,M,,*6A
$GPGGA,155720.00,5524.63001,N,01023.66863,E,1,07,1.57,15.4,M,43.1,M,,*65
$GPGGA,155730.00,5524.63028,N,01023.66884,E,1,07,1.58,16.1,M,43.1,M,,*6F
$GPGGA,155740.00,5524.63031,N,01023.66921,E,1,08,1.58,16.0,M,43.1,M,,*60
$GPGGA,155750.00,5524.63026,N,01023.66943,E,1,08,1.58,15.6,M,43.1,M,,*66
$GPGGA,155800.00,5524.63039,N,01023.66894,E,1,08,1.09,16.0,M,43.1,M,,*68
$GPGGA,155810.00,5524.63054,N,01023.66870,E,1,08,1.09,16.4,M,43.1,M,,*6C
$GPGGA,155820.00,5524.63069,N,01023.66885,E,1,08,1.58,16.7,M,43.1,M,,*6C
$GPGGA,155830.00,5524.63088,N,01023.66894,E,1,07,1.58,17.2,M,43.1,M,,*69
$GPGGA,155840.00,5524.63097,N,01023.66900,E,1,08,1.58,17.4,M,43.1,M,,*65
$GPGGA,155850.00,5524.63101,N,01023.66905,E,1,08,1.09,17.5,M,43.1,M,,*6A
$GPGGA,155900.00,5524.63080,N,01023.66897,E,1,08,1.09,17.0,M,43.1,M,,*69
$GPGGA,155910.00,5524.63079,N,01023.66889,E,1,08,1.09,17.0,M,43.1,M,,*61
$GPGGA,155920.00,5524.63055,N,01023.66932,E,1,07,1.58,16.1,M,43.1,M,,*66
$GPGGA,155930.00,5524.63059,N,01023.66967,E,1,07,1.58,16.1,M,43.1,M,,*6B
$GPGGA,155940.00,5524.63083,N,01023.66980,E,1,07,1.58,16.7,M,43.1,M,,*64
$GPGGA,155950.00,5524.63098,N,01023.66985,E,1,07,1.58,17.1,M,43.1,M,,*6D
$GPGGA,160000.00,5524.63105,N,01023.66978,E,1,08,1.58,17.3,M,43.1,M,,*6D
$GPGGA,160010.00,5524.63092,N,01023.66941,E,1,08,1.58,16.8,M,43.1,M,,*63
$GPGGA,160020.00,5524.63032,N,01023.66974,E,1,08,1.08,15.2,M,43.1,M,,*60
$GPGGA,160030.00,5524.63017,N,01023.66955,E,1,08,1.08,15.2,M,43.1,M,,*65
$GPGGA,160040.00,5524.63046,N,01023.66875,E,1,08,1.08,16.6,M,43.1,M,,*62
$GPGGA,160050.00,5524.63089,N,01023.66792,E,1,08,1.08,18.4,M,43.1,M,,*6A
$GPGGA,160100.00,5524.63097,N,01023.66774,E,1,08,1.08,18.9,M,43.1,M,,*64
$GPGGA,160110.00,5524.63121,N,01023.66761,E,1,08,1.16,19.9,M,43.1,M,,*63
$GPGGA,160120.00,5524.63143,N,01023.66736,E,1,07,1.19,21.0,M,43.1,M,,*64
$GPGGA,160130.00,5524.63138,N,01023.66754,E,1,07,1.19,21.0,M,43.1,M,,*6D
$GPGGA,160140.00,5524.63129,N,01023.66781,E,1,08,1.08,20.6,M,43.1,M,,*6A
$GPGGA,160150.00,5524.63147,N,01023.66747,E,1,08,1.08,21.2,M,43.1,M,,*6C
$GPGGA,160200.00,5524.63139,N,01023.66717,E,1,08,1.08,21.0,M,43.1,M,,*64
$GPGGA,160210.00,5524.63138,N,01023.66685,E,1,08,1.15,21.2,M,43.1,M,,*60
$GPGGA,160220.00,5524.63140,N,01023.66633,E,1,08,1.15,21.4,M,43.1,M,,*67
$GPGGA,160230.00,5524.63144,N,01023.66566,E,1,07,1.15,21.7,M,43.1,M,,*6D
$GPGGA,160240.00,5524.63151,N,01023.66514,E,1,07,1.15,22.1,M,43.1,M,,*6E
$GPGGA,160250.00,5524.63134,N,01023.66529,E,1,08,1.07,21.6,M,43.1,M,,*6A
$GPGGA,160300.00,5524.63130,N,01023.66486,E,1,08,1.07,21.5,M,43.1,M,,*6D
$GPGGA,160310.00,5524.63119,N,01023.66441,E,1,08,1.07,21.5,M,43.1,M,,*6C
$GPGGA,160320.00,5524.63114,N,01023.66445,E,1,08,1.07,21.4,M,43.1,M,,*67
$GPGGA,160330.00,5524.63119,N,01023.66432,E,1,07,1.60,21.6,M,43.1,M,,*67
$GPGGA,160340.00,5524.63109,N,01023.66456,E,1,07,1.60,21.4,M,43.1,M,,*61
$GPGGA,160350.00,5524.63087,N,01023.66500,E,1,08,1.07,20.7,M,43.1,M,,*69
$GPGGA,160400.00,5524.63064,N,01023.66523,E,1,08,1.07,20.0,M,43.1,M,,*60
$GPGGA,160410.00,5524.63061,N,01023.66540,E,1,08,1.19,20.0,M,43.1,M,,*6E
$GPGGA,160420.00,5524.63057,N,01023.66525,E,1,08,1.19,20.0,M,43.1,M,,*6B
$GPGGA,160430.00,5524.63055,N,01023.66500,E,1,08,1.19,20.1,M,43.1,M,,*6E
$GPGGA,160440.00,5524.63031,N,01023.66542,E,1,09,1.07,19.7,M,43.1,M,,*6F
$GPGGA,160450.00,5524.63015,N,01023.66574,E,1,08,1.07,19.2,M,43.1,M,,*69
$GPGGA,160500.00,5524.63029,N,01023.66598,E,1,08,1.60,19.5,M,43.1,M,,*66
$GPGGA,160510.00,5524.63044,N,01023.66632,E,1,09,1.60,19.8,M,43.1,M,,*63
$GPGGA,160520.00,5524.63069,N,01023.66649,E,1,09,1.60,20.3,M,43.1,M,,*62
$GPGGA,160530.00,5524.63079,N,01023.66691,E,1,08,1.60,20.4,M,43.1,M,,*61
$GPGGA,160540.00,5524.63067,N,01023.66737,E,1,07,1.60,19.8,M,43.1,M,,*6D
$GPGGA,160550.00,5524.63059,N,01023.66788,E,1,07,1.60,19.2,M,43.1,M,,*6F
$GPGGA,160600.00,5524.63070,N,01023.66824,E,1,07,1.60,19.2,M,43.1,M,,*6B
$GPGGA,160610.00,5524.63074,N,01023.66846,E,1,08,1.06,19.2,M,43.1,M,,*65
$GPGGA,160620.00,5524.63073,N,01023.66838,E,1,07,1.18,19.3,M,43.1,M,,*69
$GPGGA,160630.00,5524.63072,N,01023.66851,E,1,07,1.18,19.2,M,43.1,M,,*67
$GPGGA,160640.00,5524.63064,N,01023.66876,E,1,07,1.18,18.8,M,43.1,M,,*69
$GPGGA,160650.00,5524.63054,N,01023.66876,E,1,08,1.06,18.5,M,43.1,M,,*66
$GPGGA,160700.00,5524.63057,N,01023.66878,E,1,08,1.06,18.5,M,43.1,M,,*6F
$GPGGA,160710.00,5524.63056,N,01023.66876,E,1,08,1.06,18.4,M,43.1,M,,*60
$GPGGA,160720.00,5524.63049,N,01023.66893,E,1,08,1.06,18.1,M,43.1,M,,*63
$GPGGA,160730.00,5524.63044,N,01023.66926,E,1,07,1.61,17.9,M,43.1,M,,*69
$GPGGA,160740.00,5524.63039,N,01023.66962,E,1,07,1.61,17.5,M,43.1,M,,*68
$GPGGA,160750.00,5524.63026,N,01023.66980,E,1,07,1.61,16.9,M,43.1,M,,*66
$GPGGA,160800.00,5524.63013,N,01023.67014,E,1,07,1.61,16.2,M,43.1,M,,*64
$GPGGA,160810.00,5524.63015,N,01023.67048,E,1,08,1.61,16.2,M,43.1,M,,*65
$GPGGA,160820.00,5524.63018,N,01023.67047,E,1,08,1.18,16.2,M,43.1,M,,*6A
$GPGGA,160830.00,5524.63021,N,01023.67022,E,1,08,1.18,16.4,M,43.1,M,,*64
$GPGGA,160840.00,5524.63019,N,01023.67016,E,1,08,1.18,16.5,M,43.1,M,,*6E
$GPGGA,160850.00,5524.63022,N,01023.66984,E,1,08,1.61,16.7,M,43.1,M,,*68
$GPGGA,160900.00,5524.63028,N,01023.66993,E,1,07,1.61,16.7,M,43.1,M,,*6F
$GPGGA,160910.00,5524.63029,N,01023.67030,E,1,07,1.62,16.7,M,43.1,M,,*6D
$GPGGA,160920.00,5524.63021,N,01023.67093,E,1,08,1.62,16.5,M,43.1,M,,*62
$GPGGA,160930.00,5524.63024,N,01023.67127,E,1,07,1.62,16.7,M,43.1,M,,*65
$GPGGA,160940.00,5524.63030,N,01023.67171,E,1,07,3.21,16.7,M,43.1,M,,*61
$GPGGA,160950.00,5524.63035,N,01023.67217,E,1,08,3.22,16.7,M,43.1,M,,*6A
$GPGGA,161000.00,5524.63037,N,01023.67253,E,1,07,3.22,16.6,M,43.1,M,,*6B
$GPGGA,161010.00,5524.63047,N,01023.67260,E,1,08,1.62,16.8,M,43.1,M,,*6A
$GPGGA,161020.00,5524.63064,N,01023.67261,E,1,06,3.23,17.3,M,43.1,M,,*6A
$GPGGA,161030.00,5524.63074,N,01023.67249,E,1,08,1.05,17.7,M,43.1,M,,*6C
$GPGGA,161040.00,5524.63074,N,01023.67202,E,1,07,1.18,18.0,M,43.1,M,,*6F
$GPGGA,161050.00,5524.63063,N,01023.67206,E,1,08,1.04,17.7,M,43.1,M,,*66
$GPGGA,161100.00,5524.63059,N,01023.67201,E,1,08,1.04,17.6,M,43.1,M,,*6D
$GPGGA,161110.00,5524.63058,N,01023.67203,E,1,08,1.62,17.7,M,43.1,M,,*6E
$GPGGA,161120.00,5524.63049,N,01023.67212,E,1,07,1.62,17.3,M,43.1,M,,*66
$GPGGA,161130.00,5524.63039,N,01023.67226,E,1,07,1.62,16.8,M,43.1,M,,*6D
$GPGGA,161140.00,5524.63031,N,01023.67242,E,1,07,1.62,16.4,M,43.1,M,,*6C
$GPGGA,161150.00,5524.63052,N,01023.67220,E,1,07,1.62,17.0,M,43.1,M,,*69
$GPGGA,161200.00,5524.63064,N,01023.67197,E,1,08,1.62,17.4,M,43.1,M,,*6E
$GPGGA,161210.00,5524.63056,N,01023.67208,E,1,07,1.63,17.2,M,43.1,M,,*63
$GPGGA,161220.00,5524.63043,N,01023.67179,E,1,07,1.63,17.0,M,43.1,M,,*63
$GPGGA,161230.00,5524.63052,N,01023.67188,E,1,07,1.63,17.2,M,43.1,M,,*6E
$GPGGA,161240.00,5524.63058,N,01023.67180,E,1,08,1.63,17.4,M,43.1,M,,*62
$GPGGA,161250.00,5524.63049,N,01023.67195,E,1,07,1.63,17.2,M,43.1,M,,*6E
$GPGGA,161300.00,5524.63044,N,01023.67226,E,1,07,1.63,16.9,M,43.1,M,,*66
$GPGGA,161310.00,5524.63041,N,01023.67263,E,1,07,1.63,16.7,M,43.1,M,,*6D
$GPGGA,161320.00,5524.63052,N,01023.67285,E,1,07,1.63,17.0,M,43.1,M,,*62
$GPGGA,161330.00,5524.63063,N,01023.67285,E,1,08,1.63,17.3,M,43.1,M,,*6D
$GPGGA,161340.00,5524.63061,N,01023.67297,E,1,07,1.63,17.3,M,43.1,M,,*64
$GPGGA,161350.00,5524.63051,N,01023.67299,E,1,08,1.03,17.0,M,43.1,M,,*62
$GPGGA,161400.00,5524.63057,N,01023.67289,E,1,08,1.17,17.3,M,43.1,M,,*61
$GPGGA,161410.00,5524.63059,N,01023.67313,E,1,08,1.63,17.5,M,43.1,M,,*69
$GPGGA,161420.00,5524.63036,N,01023.67364,E,1,07,1.63,16.6,M,43.1,M,,*6E
$GPGGA,161430.00,5524.63018,N,01023.67390,E,1,07,1.63,15.8,M,43.1,M,,*65
$GPGGA,161440.00,5524.63016,N,01023.67398,E,1,08,1.03,15.7,M,43.1,M,,*62
$GPGGA,161450.00,5524.63021,N,01023.67383,E,1,08,1.03,15.8,M,43.1,M,,*62
$GPGGA,161500.00,5524.63032,N,01023.67375,E,1,08,1.03,16.1,M,43.1,M,,*67
$GPGGA,161510.00,5524.63039,N,01023.67406,E,1,08,1.17,16.2,M,43.1,M,,*68
$GPGGA,161520.00,5524.63031,N,01023.67405,E,1,07,1.17,15.8,M,43.1,M,,*66
$GPGGA,161530.00,5524.63044,N,01023.67403,E,1,08,1.17,16.2,M,43.1,M,,*65
$GPGGA,161540.00,5524.63050,N,01023.67383,E,1,08,1.03,16.4,M,43.1,M,,*6B
$GPGGA,161550.00,5524.63048,N,01023.67377,E,1,08,1.03,16.4,M,43.1,M,,*68
$GPGGA,161600.00,5524.63041,N,01023.67365,E,1,08,1.16,16.1,M,43.1,M,,*65
$GPGGA,161610.00,5524.63042,N,01023.67326,E,1,08,1.16,16.4,M,43.1,M,,*65
$GPGGA,161620.00,5524.63050,N,01023.67304,E,1,07,1.16,16.8,M,43.1,M,,*66
$GPGGA,161630.00,5524.63057,N,01023.67311,E,1,08,1.16,17.3,M,43.1,M,,*61
$GPGGA,161640.00,5524.63057,N,01023.67309,E,1,08,1.02,17.3,M,43.1,M,,*6A
$GPGGA,161650.00,5524.63059,N,01023.67300,E,1,08,1.02,17.3,M,43.1,M,,*6C
$GPGGA,161700.00,5524.63049,N,01023.67313,E,1,08,1.02,17.0,M,43.1,M,,*68
$GPGGA,161710.00,5524.63036,N,01023.67346,E,1,08,1.16,16.5,M,43.1,M,,*60
$GPGGA,161720.00,5524.63045,N,01023.67363,E,1,07,3.39,16.6,M,43.1,M,,*63
$GPGGA,161730.00,5524.63044,N,01023.67368,E,1,08,1.16,16.5,M,43.1,M,,*6B
$GPGGA,161740.00,5524.63045,N,01023.67393,E,1,08,1.64,16.3,M,43.1,M,,*6A
$GPGGA,161750.00,5524.63055,N,01023.67365,E,1,08,1.16,16.7,M,43.1,M,,*62
$GPGGA,161800.00,5524.63055,N,01023.67336,E,1,08,1.65,16.7,M,43.1,M,,*6A
$GPGGA,161810.00,5524.63055,N,01023.67317,E,1,07,1.65,16.7,M,43.1,M,,*67
$GPGGA,161820.00,5524.63029,N,01023.67327,E,1,08,1.65,16.0,M,43.1,M,,*64
$GPGGA,161830.00,5524.63045,N,01023.67302,E,1,08,1.65,16.6,M,43.1,M,,*6E
$GPGGA,161840.00,5524.63041,N,01023.67290,E,1,08,1.02,16.5,M,43.1,M,,*65
$GPGGA,161850.00,5524.63034,N,01023.67283,E,1,08,1.01,16.5,M,43.1,M,,*67
$GPGGA,161900.00,5524.63029,N,01023.67198,E,1,08,1.01,16.7,M,43.1,M,,*64
$GPGGA,161910.00,5524.63018,N,01023.67141,E,1,08,1.01,16.6,M,43.1,M,,*62
$GPGGA,161920.00,5524.63004,N,01023.67124,E,1,07,3.43,16.3,M,43.1,M,,*61
$GPGGA,161930.00,5524.62993,N,01023.67142,E,1,08,1.01,16.1,M,43.1,M,,*6F
$GPGGA,161940.00,5524.62994,N,01023.67176,E,1,07,1.16,16.2,M,43.1,M,,*62
$GPGGA,161950.00,5524.63009,N,01023.67148,E,1,08,1.16,16.7,M,43.1,M,,*68
$GPGGA,162000.00,5524.63022,N,01023.67123,E,1,08,1.65,17.0,M,43.1,M,,*61
$GPGGA,162010.00,5524.63024,N,01023.67079,E,1,08,1.01,17.3,M,43.1,M,,*69
$GPGGA,162020.00,5524.63031,N,01023.67079,E,1,07,1.65,17.5,M,43.1,M,,*65
$GPGGA,162030.00,5524.63029,N,01023.67121,E,1,07,3.46,17.4,M,43.1,M,,*63
$GPGGA,162040.00,5524.63036,N,01023.67146,E,1,06,3.46,17.6,M,43.1,M,,*68
$GPGGA,162050.00,5524.63054,N,01023.67138,E,1,07,1.66,18.1,M,43.1,M,,*6D
$GPGGA,162100.00,5524.63047,N,01023.67185,E,1,07,1.66,17.7,M,43.1,M,,*64
$GPGGA,162110.00,5524.63047,N,01023.67233,E,1,06,3.47,17.3,M,43.1,M,,*6F
$GPGGA,162120.00,5524.63027,N,01023.67304,E,1,07,1.66,16.3,M,43.1,M,,*6E
$GPGGA,162130.00,5524.63015,N,01023.67328,E,1,07,1.15,15.7,M,43.1,M,,*63
$GPGGA,162140.00,5524.63013,N,01023.67316,E,1,07,1.15,15.5,M,43.1,M,,*6D
$GPGGA,162150.00,5524.63023,N,01023.67299,E,1,07,1.15,15.7,M,43.1,M,,*6B
$GPGGA,162200.00,5524.63026,N,01023.67276,E,1,08,1.00,15.8,M,43.1,M,,*6D
$GPGGA,162210.00,5524.63023,N,01023.67284,E,1,07,1.15,15.7,M,43.1,M,,*60
$GPGGA,162220.00,5524.63022,N,01023.67307,E,1,07,1.15,15.5,M,43.1,M,,*6A
$GPGGA,162230.00,5524.63041,N,01023.67309,E,1,07,1.66,16.0,M,43.1,M,,*62
$GPGGA,162240.00,5524.63042,N,01023.67322,E,1,07,1.66,15.9,M,43.1,M,,*65
$GPGGA,162250.00,5524.63036,N,01023.67323,E,1,07,1.66,15.5,M,43.1,M,,*6A
$GPGGA,162300.00,5524.63015,N,01023.67301,E,1,08,1.00,14.9,M,43.1,M,,*6D
$GPGGA,162310.00,5524.63011,N,01023.67268,E,1,08,1.00,14.9,M,43.1,M,,*66
$GPGGA,162320.00,5524.63005,N,01023.67267,E,1,07,1.15,15.0,M,43.1,M,,*6C
$GPGGA,162330.00,5524.63003,N,01023.67223,E,1,08,1.00,15.2,M,43.1,M,,*62
$GPGGA,162340.00,5524.62979,N,01023.67212,E,1,07,1.15,14.6,M,43.1,M,,*6C
$GPGGA,162350.00,5524.62971,N,01023.67182,E,1,08,1.00,14.6,M,43.1,M,,*64
$GPGGA,162400.00,5524.62961,N,01023.67172,E,1,08,1.15,14.5,M,43.1,M,,*6F
$GPGGA,162410.00,5524.62980,N,01023.67162,E,1,07,3.52,15.0,M,43.1,M,,*6A
$GPGGA,162420.00,5524.62998,N,01023.67145,E,1,08,1.00,15.5,M,43.1,M,,*6A
$GPGGA,162430.00,5524.63016,N,01023.67038,E,1,08,1.00,16.5,M,43.1,M,,*6D
$GPGGA,162440.00,5524.63020,N,01023.66958,E,1,07,1.15,17.0,M,43.1,M,,*6E
$GPGGA,162450.00,5524.63022,N,01023.66941,E,1,07,3.53,17.2,M,43.1,M,,*67
$GPGGA,162500.00,5524.63021,N,01023.66917,E,1,08,1.00,17.3,M,43.1,M,,*69
$GPGGA,162510.00,5524.63026,N,01023.66917,E,1,07,1.67,17.5,M,43.1,M,,*67
$GPGGA,162520.00,5524.63018,N,01023.66957,E,1,06,3.54,17.2,M,43.1,M,,*69
$GPGGA,162530.00,5524.63011,N,01023.66945,E,1,07,1.14,17.1,M,43.1,M,,*66
$GPGGA,162540.00,5524.63009,N,01023.66851,E,1,07,1.14,17.6,M,43.1,M,,*6B
$GPGGA,162550.00,5524.63009,N,01023.66779,E,1,08,0.99,17.9,M,43.1,M,,*6B
$GPGGA,162600.00,5524.63024,N,01023.66568,E,1,08,0.99,19.1,M,43.1,M,,*66
$GPGGA,162610.00,5524.63059,N,01023.66322,E,1,08,0.99,20.9,M,43.1,M,,*67
$GPGGA,162620.00,5524.63081,N,01023.66103,E,1,08,0.99,22.1,M,43.1,M,,*6A
$GPGGA,162630.00,5524.63087,N,01023.65875,E,1,08,0.99,23.2,M,43.1,M,,*64
$GPGGA,162640.00,5524.63070,N,01023.65730,E,1,08,0.99,23.5,M,43.1,M,,*62
$GPGGA,162650.00,5524.63055,N,01023.65661,E,1,08,0.99,23.6,M,43.1,M,,*62
$GPGGA,162700.00,5524.63009,N,01023.65733,E,1,07,1.14,22.5,M,43.1,M,,*60
$GPGGA,162710.00,5524.62961,N,01023.65787,E,1,07,1.14,21.4,M,43.1,M,,*6A
$GPGGA,162720.00,5524.62935,N,01023.65892,E,1,07,1.14,20.5,M,43.1,M,,*63
$GPGGA,162730.00,5524.62932,N,01023.66110,E,1,07,1.14,19.8,M,43.1,M,,*62
$GPGGA,162740.00,5524.62952,N,01023.66283,E,1,07,1.14,19.4,M,43.1,M,,*66
$GPGGA,162750.00,5524.62995,N,01023.66307,E,1,07,1.14,19.7,M,43.1,M,,*62
$GPGGA,162800.00,5524.63058,N,01023.66259,E,1,07,1.14,20.6,M,43.1,M,,*60
$GPGGA,162810.00,5524.63089,N,01023.66277,E,1,07,1.14,20.7,M,43.1,M,,*60
$GPGGA,162820.00,5524.63103,N,01023.66312,E,1,08,1.27,20.5,M,43.1,M,,*6F
$GPGGA,162830.00,5524.63085,N,01023.66446,E,1,08,1.27,19.4,M,43.1,M,,*6C
$GPGGA,162840.00,5524.63086,N,01023.66499,E,1,07,1.27,19.0,M,43.1,M,,*61
$GPGGA,162850.00,5524.63052,N,01023.66565,E,1,07,1.27,17.9,M,43.1,M,,*6C
$GPGGA,162900.00,5524.62966,N,01023.66924,E,1,06,1.27,14.7,M,43.1,M,,*62
$GPGGA,162910.00,5524.62914,N,01023.67201,E,1,08,1.27,12.8,M,43.1,M,,*6C
$GPGGA,162920.00,5524.62961,N,01023.67090,E,1,08,1.04,14.3,M,43.1,M,,*6B
$GPGGA,162930.00,5524.62922,N,01023.67217,E,1,07,1.80,13.2,M,43.1,M,,*65
$GPGGA,162940.00,5524.62882,N,01023.67352,E,1,06,3.80,11.9,M,43.1,M,,*63
$GPGGA,162950.00,5524.62963,N,01023.67045,E,1,07,1.80,14.7,M,43.1,M,,*61
$GPGGA,163000.00,5524.62978,N,01023.66973,E,1,06,1.80,15.3,M,43.1,M,,*6F
$GPGGA,163010.00,5524.62968,N,01023.67037,E,1,06,1.80,14.8,M,43.1,M,,*6D
$GPGGA,163020.00,5524.62986,N,01023.66924,E,1,06,1.80,15.7,M,43.1,M,,*6A
$GPGGA,163030.00,5524.63000,N,01023.66929,E,1,05,3.83,15.9,M,43.1,M,,*6C
$GPGGA,163040.00,5524.63010,N,01023.66801,E,1,07,1.04,16.5,M,43.1,M,,*61
$GPGGA,163050.00,5524.63019,N,01023.66452,E,1,07,1.04,17.7,M,43.1,M,,*60
$GPGGA,163100.00,5524.63040,N,01023.66122,E,1,07,1.04,18.9,M,43.1,M,,*6B
$GPGGA,163110.00,5524.63051,N,01023.65941,E,1,06,1.28,19.2,M,43.1,M,,*61
$GPGGA,163120.00,5524.63065,N,01023.65804,E,1,06,1.28,19.4,M,43.1,M,,*63
$GPGGA,163130.00,5524.63072,N,01023.65718,E,1,06,1.28,19.5,M,43.1,M,,*67
$GPGGA,163140.00,5524.63066,N,01023.65804,E,1,06,1.28,19.3,M,43.1,M,,*61
$GPGGA,163150.00,5524.63044,N,01023.66045,E,1,06,1.28,18.5,M,43.1,M,,*69
$GPGGA,163200.00,5524.63032,N,01023.66214,E,1,06,1.28,18.1,M,43.1,M,,*6C
$GPGGA,163210.00,5524.63027,N,01023.66374,E,1,06,1.28,17.7,M,43.1,M,,*67
$GPGGA,163220.00,5524.63021,N,01023.66460,E,1,06,1.28,17.5,M,43.1,M,,*62
$GPGGA,163230.00,5524.63015,N,01023.66495,E,1,06,1.34,17.6,M,43.1,M,,*60
$GPGGA,163240.00,5524.63009,N,01023.66532,E,1,07,1.28,17.5,M,43.1,M,,*69
$GPGGA,163250.00,5524.63008,N,01023.66516,E,1,07,1.04,17.7,M,43.1,M,,*63
$GPGGA,163300.00,5524.63012,N,01023.66320,E,1,07,1.04,18.6,M,43.1,M,,*61
$GPGGA,163310.00,5524.63010,N,01023.66253,E,1,06,1.29,19.0,M,43.1,M,,*6E
$GPGGA,163320.00,5524.63008,N,01023.66228,E,1,06,1.29,19.1,M,43.1,M,,*69
$GPGGA,163330.00,5524.63007,N,01023.66257,E,1,06,1.29,19.0,M,43.1,M,,*6E
$GPGGA,163340.00,5524.63013,N,01023.66023,E,1,07,1.04,20.1,M,43.1,M,,*68
$GPGGA,163350.00,5524.63008,N,01023.65850,E,1,07,1.04,20.9,M,43.1,M,,*64
$GPGGA,163400.00,5524.62990,N,01023.65789,E,1,06,1.29,21.4,M,43.1,M,,*66
$GPGGA,163410.00,5524.62971,N,01023.65770,E,1,06,1.29,21.6,M,43.1,M,,*6C
$GPGGA,163420.00,5524.62960,N,01023.65805,E,1,07,1.29,21.5,M,43.1,M,,*60
$GPGGA,163430.00,5524.62957,N,01023.65818,E,1,07,1.04,21.7,M,43.1,M,,*64
$GPGGA,163440.00,5524.62956,N,01023.65810,E,1,07,1.04,22.0,M,43.1,M,,*6E
$GPGGA,163450.00,5524.62955,N,01023.65770,E,1,07,1.04,22.3,M,43.1,M,,*66
$GPGGA,163500.00,5524.62952,N,01023.65726,E,1,06,1.05,22.6,M,43.1,M,,*63
$GPGGA,163510.00,5524.62954,N,01023.65693,E,1,07,1.04,23.0,M,43.1,M,,*6C
$GPGGA,163520.00,5524.62953,N,01023.65720,E,1,06,1.29,22.9,M,43.1,M,,*67
$GPGGA,163530.00,5524.62949,N,01023.65787,E,1,06,1.29,22.6,M,43.1,M,,*6F
$GPGGA,163540.00,5524.62950,N,01023.65835,E,1,06,1.29,22.5,M,43.1,M,,*65
$GPGGA,163550.00,5524.62948,N,01023.65890,E,1,06,1.29,22.4,M,43.1,M,,*63
$GPGGA,163600.00,5524.62945,N,01023.65937,E,1,07,1.03,22.2,M,43.1,M,,*6B
$GPGGA,163610.00,5524.62936,N,01023.65985,E,1,06,1.30,21.9,M,43.1,M,,*6E
$GPGGA,163620.00,5524.62937,N,01023.66034,E,1,06,1.30,21.9,M,43.1,M,,*6C
$GPGGA,163630.00,5524.62941,N,01023.66062,E,1,06,1.30,21.9,M,43.1,M,,*6F
$GPGGA,163640.00,5524.62940,N,01023.66112,E,1,07,1.30,21.6,M,43.1,M,,*61
$GPGGA,163650.00,5524.62951,N,01023.66189,E,1,07,1.30,21.4,M,43.1,M,,*60
$GPGGA,163700.00,5524.62957,N,01023.66373,E,1,07,1.30,20.5,M,43.1,M,,*65
$GPGGA,163710.00,5524.62967,N,01023.66592,E,1,07,1.03,19.4,M,43.1,M,,*65
$GPGGA,163720.00,5524.62980,N,01023.66857,E,1,06,4.11,18.2,M,43.1,M,,*6B
$GPGGA,163829.00,5524.62995,N,01023.65363,E,1,07,1.85,25.2,M,43.1,M,,*61
$GPGGA,163839.00,5524.62995,N,01023.65275,E,1,07,1.03,25.6,M,43.1,M,,*6C
$GPGGA,163849.00,5524.62994,N,01023.65146,E,1,06,1.85,26.3,M,43.1,M,,*60
$GPGGA,163859.00,5524.63000,N,01023.64869,E,1,06,1.85,27.5,M,43.1,M,,*66
$GPGGA,163909.00,5524.63004,N,01023.64684,E,1,07,4.19,28.2,M,43.1,M,,*62
$GPGGA,163919.00,5524.63004,N,01023.64632,E,1,05,4.19,28.3,M,43.1,M,,*6D
$GPGGA,163929.00,5524.63003,N,01023.64633,E,1,05,4.20,28.1,M,43.1,M,,*60
$GPGGA,163939.00,5524.63009,N,01023.64775,E,1,07,1.31,27.1,M,43.1,M,,*60
$GPGGA,163949.00,5524.63007,N,01023.64822,E,1,07,1.03,26.9,M,43.1,M,,*6C
$GPGGA,163959.00,5524.63001,N,01023.65054,E,1,06,1.31,25.8,M,43.1,M,,*61
$GPGGA,164009.00,5524.62993,N,01023.65358,E,1,06,1.31,24.4,M,43.1,M,,*6B
$GPGGA,164019.00,5524.62988,N,01023.65620,E,1,07,1.31,23.2,M,43.1,M,,*6A
$GPGGA,164029.00,5524.62991,N,01023.66098,E,1,07,1.03,21.2,M,43.1,M,,*64
$GPGGA,164039.00,5524.62990,N,01023.66438,E,1,07,1.03,19.7,M,43.1,M,,*64
$GPGGA,164049.00,5524.62983,N,01023.66466,E,1,07,1.03,19.5,M,43.1,M,,*68
$GPGGA,164059.00,5524.62969,N,01023.66238,E,1,07,1.31,20.3,M,43.1,M,,*6D
$GPGGA,164109.00,5524.62957,N,01023.65863,E,1,06,4.28,21.6,M,43.1,M,,*6B
$GPGGA,164119.00,5524.62961,N,01023.65567,E,1,06,1.87,22.8,M,43.1,M,,*6B
$GPGGA,164129.00,5524.62967,N,01023.65104,E,1,06,1.87,24.8,M,43.1,M,,*69
$GPGGA,164139.00,5524.62981,N,01023.64875,E,1,06,1.87,26.3,M,43.1,M,,*67
$GPGGA,164149.00,5524.62991,N,01023.64738,E,1,06,1.87,27.3,M,43.1,M,,*66
$GPGGA,164159.00,5524.62993,N,01023.64553,E,1,06,1.87,28.6,M,43.1,M,,*60
$GPGGA,164209.00,5524.62995,N,01023.64439,E,1,06,1.88,29.6,M,43.1,M,,*63
$GPGGA,164219.00,5524.62994,N,01023.64379,E,1,06,1.88,30.2,M,43.1,M,,*6C
$GPGGA,164229.00,5524.62994,N,01023.64452,E,1,05,4.33,30.0,M,43.1,M,,*65
$GPGGA,164239.00,5524.62985,N,01023.64716,E,1,06,4.34,28.7,M,43.1,M,,*6D
$GPGGA,164249.00,5524.62992,N,01023.65345,E,1,06,4.35,25.7,M,43.1,M,,*63
$GPGGA,164259.00,5524.63000,N,01023.65911,E,1,05,4.35,23.0,M,43.1,M,,*68
$GPGGA,164309.00,5524.63010,N,01023.66531,E,1,05,4.36,19.9,M,43.1,M,,*63
$GPGGA,164319.00,5524.63018,N,01023.67044,E,1,05,4.37,17.1,M,43.1,M,,*6B
$GPGGA,164329.00,5524.63027,N,01023.67458,E,1,05,4.38,14.8,M,43.1,M,,*68
$GPGGA,164339.00,5524.63026,N,01023.67550,E,1,05,4.38,14.1,M,43.1,M,,*68
$GPGGA,164349.00,5524.63027,N,01023.67644,E,1,05,4.39,13.3,M,43.1,M,,*6C
$GPGGA,164359.00,5524.63033,N,01023.67789,E,1,05,4.40,12.2,M,43.1,M,,*66
$GPGGA,164409.00,5524.63032,N,01023.67796,E,1,05,4.40,11.9,M,43.1,M,,*63
$GPGGA,164419.00,5524.63020,N,01023.67603,E,1,05,4.41,12.5,M,43.1,M,,*62
$GPGGA,164429.00,5524.63010,N,01023.67434,E,1,06,4.42,13.3,M,43.1,M,,*63
$GPGGA,164439.00,5524.63001,N,01023.67289,E,1,06,4.42,13.9,M,43.1,M,,*68
$GPGGA,164449.00,5524.62990,N,01023.67058,E,1,05,4.43,15.0,M,43.1,M,,*6C
$GPGGA,164459.00,5524.62971,N,01023.66751,E,1,06,1.33,16.3,M,43.1,M,,*6C
$GPGGA,164509.00,5524.62937,N,01023.66132,E,1,05,4.44,19.6,M,43.1,M,,*65
$GPGGA,164519.00,5524.62945,N,01023.66180,E,1,05,4.45,19.4,M,43.1,M,,*6B
$GPGGA,164529.00,5524.62953,N,01023.66251,E,1,05,4.46,18.9,M,43.1,M,,*6F
$GPGGA,164539.00,5524.62959,N,01023.66325,E,1,07,1.90,18.5,M,43.1,M,,*66
$GPGGA,164549.00,5524.62960,N,01023.66295,E,1,07,1.02,18.9,M,43.1,M,,*66
$GPGGA,164559.00,5524.62957,N,01023.66143,E,1,07,1.02,19.7,M,43.1,M,,*64
$GPGGA,164609.00,5524.62948,N,01023.65907,E,1,07,1.02,21.0,M,43.1,M,,*6B
$GPGGA,164619.00,5524.62927,N,01023.65609,E,1,07,1.02,22.8,M,43.1,M,,*69
$GPGGA,164629.00,5524.62918,N,01023.65548,E,1,07,1.02,23.4,M,43.1,M,,*6D
$GPGGA,164639.00,5524.62915,N,01023.65598,E,1,06,1.91,23.3,M,43.1,M,,*60
$GPGGA,164649.00,5524.62921,N,01023.65757,E,1,06,1.91,22.7,M,43.1,M,,*64
$GPGGA,164659.00,5524.62917,N,01023.65803,E,1,06,1.91,22.7,M,43.1,M,,*6E
$GPGGA,164709.00,5524.62912,N,01023.65649,E,1,06,1.91,23.9,M,43.1,M,,*60
$GPGGA,164719.00,5524.62909,N,01023.65514,E,1,06,1.91,25.2,M,43.1,M,,*6D
$GPGGA,164729.00,5524.62908,N,01023.65516,E,1,06,1.91,25.5,M,43.1,M,,*6A
$GPGGA,164739.00,5524.62902,N,01023.65341,E,1,07,1.02,27.0,M,43.1,M,,*69
$GPGGA,164749.00,5524.62902,N,01023.65401,E,1,06,1.91,27.0,M,43.1,M,,*66
$GPGGA,164759.00,5524.62911,N,01023.65806,E,1,06,1.91,24.5,M,43.1,M,,*68
$GPGGA,164809.00,5524.62919,N,01023.66110,E,1,06,1.91,22.6,M,43.1,M,,*62
$GPGGA,164819.00,5524.62931,N,01023.66550,E,1,06,1.92,19.7,M,43.1,M,,*63
$GPGGA,164829.00,5524.62943,N,01023.66973,E,1,06,4.56,16.8,M,43.1,M,,*65
$GPGGA,164839.00,5524.62955,N,01023.67344,E,1,05,4.57,14.1,M,43.1,M,,*65
$GPGGA,164849.00,5524.62962,N,01023.67451,E,1,05,4.57,13.1,M,43.1,M,,*62
$GPGGA,164859.00,5524.62967,N,01023.67586,E,1,05,4.58,11.9,M,43.1,M,,*68
$GPGGA,164909.00,5524.62969,N,01023.67633,E,1,07,4.58,11.3,M,43.1,M,,*67
$GPGGA,164919.00,5524.62975,N,01023.67659,E,1,06,4.59,11.0,M,43.1,M,,*64
$GPGGA,164929.00,5524.62976,N,01023.67475,E,1,06,1.34,12.1,M,43.1,M,,*64
$GPGGA,164939.00,5524.62977,N,01023.67196,E,1,06,1.34,13.9,M,43.1,M,,*65
$GPGGA,164949.00,5524.62976,N,01023.66774,E,1,06,1.34,16.7,M,43.1,M,,*63
$GPGGA,164959.00,5524.62982,N,01023.66212,E,1,06,1.34,20.6,M,43.1,M,,*68
$GPGGA,165009.00,5524.62983,N,01023.65906,E,1,07,1.34,22.8,M,43.1,M,,*64
$GPGGA,165019.00,5524.62984,N,01023.65762,E,1,06,1.34,23.9,M,43.1,M,,*6F
$GPGGA,165029.00,5524.62977,N,01023.65607,E,1,06,1.34,25.0,M,43.1,M,,*6D
$GPGGA,165039.00,5524.62981,N,01023.65632,E,1,06,1.34,25.2,M,43.1,M,,*61
$GPGGA,165049.00,5524.62985,N,01023.65625,E,1,06,1.34,25.5,M,43.1,M,,*63
$GPGGA,165059.00,5524.62988,N,01023.65644,E,1,06,1.34,25.6,M,43.1,M,,*6B
$GPGGA,165109.00,5524.62984,N,01023.65652,E,1,06,1.35,25.7,M,43.1,M,,*64
$GPGGA,165119.00,5524.62963,N,01023.65760,E,1,06,1.35,24.9,M,43.1,M,,*63
$GPGGA,165129.00,5524.62938,N,01023.65919,E,1,06,1.35,23.4,M,43.1,M,,*64
$GPGGA,165139.00,5524.62924,N,01023.66161,E,1,06,1.35,21.5,M,43.1,M,,*6F
$GPGGA,165149.00,5524.62918,N,01023.66330,E,1,06,1.35,20.1,M,43.1,M,,*64
$GPGGA,165159.00,5524.62915,N,01023.66434,E,1,06,1.35,19.0,M,43.1,M,,*60
$GPGGA,165209.00,5524.62912,N,01023.66577,E,1,07,1.35,17.9,M,43.1,M,,*61
$GPGGA,165219.00,5524.62918,N,01023.66678,E,1,06,1.35,17.2,M,43.1,M,,*6C
